     2.11           OBSERVATION DATA    M (MIXED)           RINEX VERSION / TYPE
teqc  2015Jun23                         20220228 18:49:20UTCPGM / RUN BY / DATE
OSX ker:10.10.3|Core i5|gcc 4.2 -m64|OSX ker:10.10+|=+      COMMENT
teqc  2015Jun23                         20220228 18:49:20UTCCOMMENT
teqc  2013Mar15     gpsops              20140216 00:09:41UTCCOMMENT
Linux 2.4.21-27.ELsmp|Opteron|gcc -static|Linux x86_64|=+   COMMENT
BIT 2 OF LLI FLAGS DATA COLLECTED UNDER A/S CONDITION       COMMENT
BSHM                                                        MARKER NAME
20705M001                                                   MARKER NUMBER
GGN                 JPL                                     OBSERVER / AGENCY
2334                JPS EGGDT           2.7.0               REC # / TYPE / VERS
4811A47089          TRM59800.00     SCIS                    ANT # / TYPE
  4395951.3969  3080707.1200  3433498.1041                  APPROX POSITION XYZ
        0.0000        0.0000        0.0000                  ANTENNA: DELTA H/E/N
     1     1                                                WAVELENGTH FACT L1/2
     2    L1    C1                                          # / TYPES OF OBSERV
    30.0000                                                 INTERVAL
    16                                                      LEAP SECONDS
                                                            COMMENT
This data is provided as a public service by NASA/JPL.      COMMENT
No warranty is expressed or implied regarding suitability   COMMENT
for use.  For further information, contact:                 COMMENT
Dave Stowers, NASA/JPL m/s 238-600                          COMMENT
4800 Oak Grove Drive, Pasadena CA 91109 USA                 COMMENT
                                                            COMMENT
Forced Modulo Decimation to 30 seconds                      COMMENT
 SNR is mapped to RINEX snr flag value [0-9]                COMMENT
  L1 & L2: min(max(int(snr_dBHz/6), 0), 9)                  COMMENT
pseudorange smoothing corrections not applied               COMMENT
teqc edited: all GLONASS satellites excluded                COMMENT
teqc edited: all Galileo satellites excluded                COMMENT
  2014     2    15     0     0    0.0000000     GPS         TIME OF FIRST OBS
                                                            END OF HEADER
 14  2 15  0  0  0.0000000  0  7G12G05G21G02G25G31G29
 116634902.631 8  22194861.279
 118973145.931 7  22639820.006
 114792324.577 8  21844242.000
 126396560.180 7  24052411.866
 106732503.991 9  20310516.340
 119881943.854 7  22812775.889
 108894305.222 8  20721880.056
 14  2 15  0  0 30.0000000  0  7G12G05G21G02G25G31G29
 116712885.479 8  22209701.576
 118978357.486 7  22640811.005
 114740213.665 8  21834325.707
 126486286.252 7  24069487.449
 106752490.198 9  20314319.564
 119872972.862 8  22811068.115
 108892940.995 8  20721620.351
 14  2 15  0  1  0.0000000  0  7G12G05G21G02G25G31G29
 116791198.750 8  22224604.135
 118984136.325 8  22641911.200
 114688448.477 8  21824474.888
 126576069.744 7  24086571.663
 106772976.266 9  20318218.064
 119864539.997 7  22809464.265
 108891737.953 8  20721391.614
 14  2 15  0  1 30.0000000  0  7G12G05G21G02G25G31G29
 116869836.399 8  22239568.547
 118990478.105 7  22643117.595
 114637024.937 8  21814689.769
 126665904.539 7  24103666.546
 106793958.065 9  20322210.552
 119856640.475 7  22807960.841
 108890691.415 8  20721192.482
 14  2 15  0  2  0.0000000  0  8G12G05G18G21G02G25G31G29
 116948790.843 8  22254592.626
 118997376.343 8  22644430.971
 129824459.238 5  24704771.285
 114585936.610 8  21804967.963
 126755782.109 6  24120769.138
 106815429.178 9  20326296.274
 119849267.404 7  22806557.951
 108889794.100 8  20721021.859
 14  2 15  0  2 30.0000000  0  8G12G05G18G21G02G25G31G29
 117028077.216 8  22269680.558
 119004848.144 8  22645852.498
 129730917.164 5  24686970.175
 114535200.741 8  21795313.410
 126845717.777 7  24137883.432
 106837406.510 9  20330478.621
 119842437.201 8  22805257.559
 108889062.795 9  20720882.696
 14  2 15  0  3  0.0000000  0  8G12G05G18G21G02G25G31G29
 117107683.130 8  22284828.843
 119012882.348 7  22647381.105
 129637283.351 6  24669151.115
 114484806.113 8  21785723.180
 126935698.338 6  24155005.930
 106859878.904 9  20334755.154
 119836137.985 7  22804059.342
 108888486.280 8  20720773.116
 14  2 15  0  3 30.0000000  0  8G12G05G18G21G02G25G31G29
 117187603.023 8  22300037.282
 119021474.801 7  22649015.331
 129543556.100 6  24651314.974
 114434748.349 8  21776197.715
 127025717.523 7  24172137.055
 106882842.181 9  20339125.056
 119830365.185 7  22802960.640
 108888059.704 9  20720691.872
 14  2 15  0  4  0.0000000  0  8G12G05G18G21G02G25G31G29
 117267851.321 8  22315307.951
 119030641.058 8  22650760.228
 129449752.795 6  24633466.169
 114385042.715 8  21766738.859
 127115789.227 6  24189276.430
 106906312.049 9  20343591.141
 119825133.825 7  22801964.896
 108887798.469 9  20720641.996
 14  2 15  0  4 30.0000000  0  8G12G05G18G21G02G25G31G29
 117348412.574 8  22330638.678
 119040367.046 7  22652611.110
 129355861.663 6  24615601.090
 114335675.865 8  21757344.717
 127205897.633 7  24206424.572
 106930274.523 8  20348151.073
 119820429.323 7  22801070.025
 108887687.876 8  20720620.779
 14  2 15  0  5  0.0000000  0  8G12G05G18G21G02G25G31G29
 117429295.323 8  22346029.824
 119050662.593 7  22654570.269
 129261894.758 6  24597716.227
 114286657.500 8  21748017.048
 127296050.812 6  24223579.574
 106954739.510 9  20352806.488
 119816261.019 7  22800276.620
 108887737.815 9  20720630.268
 14  2 15  0  5 30.0000000  0  8G12G05G18G21G02G25G31G29
 117510488.861 8  22361480.653
 119061518.970 8  22656635.917
 129167844.802 6  24579819.957
 114237978.355 8  21738753.244
 127386237.552 7  24240742.269
 106979697.916 9  20357555.671
 119812619.179 8  22799583.610
 108887939.420 9  20720668.702
 14  2 15  0  6  0.0000000  0  8G12G05G18G21G02G25G31G29
 117592001.416 8  22376991.587
 119072945.758 7  22658811.360
 129073724.095 6  24561911.454
 114189648.630 8  21729556.478
 127476466.009 6  24257911.317
 107005159.594 9  20362401.172
 119809513.232 7  22798992.789
 108888301.901 8  20720737.710
 14  2 15  0  6 30.0000000  0  8G12G05G18G21G02G25G31G29
 117673826.813 8  22392562.701
 119084937.536 8  22661092.401
 128979529.297 6  24543985.949
 114141662.349 8  21720424.643
 127566729.195 6  24275086.735
 107031119.171 8  20367340.980
 119806937.211 7  22798501.991
 108888819.641 8  20720836.165
 14  2 15  0  7  0.0000000  0  8G12G05G18G21G02G25G31G29
 117755963.899 8  22408192.674
 119097494.887 8  22663482.773
 128885263.402 6  24526045.728
 114094020.757 8  21711359.263
 127657025.616 6  24292270.491
 107057577.166 9  20372375.759
 119804891.019 7  22798113.277
 108889492.617 8  20720964.437
 14  2 15  0  7 30.0000000  0  8G12G05G18G21G02G25G31G29
 117838410.691 8  22423881.674
 119110616.752 8  22665979.754
 128790927.106 6  24508093.054
 114046722.673 8  21702358.409
 127747353.073 6  24309459.780
 107084532.770 8  20377505.378
 119803372.979 7  22797824.591
 108890320.452 8  20721122.058
 14  2 15  0  8  0.0000000  0  8G12G05G18G21G02G25G31G29
 117921173.436 8  22439631.489
 119124310.552 7  22668584.492
 128696530.564 6  24490131.162
 113999775.932 8  21693425.118
 127837717.234 6  24326655.809
 107111993.504 9  20382731.111
 119802390.013 7  22797637.679
 108891310.435 8  20721310.161
 14  2 15  0  8 30.0000000  0  8G12G05G18G21G02G25G31G29
 118004238.348 8  22455438.902
 119138564.017 7  22671296.927
 128602063.698 6  24472154.471
 113953168.056 8  21684555.450
 127928104.266 6  24343855.845
 107139947.087 9  20388050.503
 119801929.432 7  22797550.239
 108892450.038 8  20721527.280
 14  2 15  0  9  0.0000000  0  8G12G05G18G21G02G25G31G29
 118087612.147 8  22471303.695
 119153385.306 7  22674118.012
 128507537.440 6  24454166.718
 113906907.629 8  21675752.607
 128018520.498 6  24361060.877
 107168401.811 9  20393465.267
 119801998.955 8  22797562.630
 108893747.088 8  20721773.956
 14  2 15  0  9 30.0000000  0  8G12G05G18G21G02G25G31G29
 118171293.311 8  22487227.516
 119168773.843 7  22677046.213
 128412953.112 6  24436167.287
 113860994.107 8  21667015.539
 128108963.895 6  24378271.900
 107197357.031 9  20398975.271
 119802597.199 8  22797676.654
 108895201.467 8  20722050.903
 14  2 15  0 10  0.0000000  0  8G12G05G18G21G02G25G31G29
 118255274.758 8  22503208.642
 119184723.926 7  22680081.298
 128318307.332 6  24418156.002
 113815421.602 8  21658343.713
 128199427.525 6  24395486.032
 107226807.145 8  20404579.080
 119803717.912 7  22797890.479
 108896807.557 8  20722355.984
 14  2 15  0 10 30.0000000  0  8G12G05G18G21G02G25G31G29
 118339565.088 8  22519248.076
 119201245.329 7  22683225.512
 128223612.452 6  24400136.692
 113770200.487 8  21649738.065
 128289919.116 6  24412706.254
 107256761.935 8  20410279.221
 119805370.190 7  22798204.204
 108898574.947 8  20722692.584
 14  2 15  0 11  0.0000000  0  8G12G05G18G21G02G25G31G29
 118424158.757 8  22535346.604
 119218333.758 7  22686476.778
 128128866.395 6  24382106.555
 113725326.119 8  21641199.249
 128380433.265 6  24429931.261
 107287217.240 9  20416074.967
 119807549.257 8  22798619.484
 108900499.291 8  20723059.031
 14  2 15  0 11 30.0000000  0  8G12G05G18G21G02G25G31G29
 118509049.013 8  22551500.575
 119235983.376 7  22689835.246
 128034066.557 6  24364067.072
 113680793.206 8  21632724.739
 128470963.238 6  24447156.660
 107318167.938 8  20421964.700
 119810249.544 7  22799132.695
 108902575.554 8  20723454.117
 14  2 15  0 12  0.0000000  0  8G12G05G18G21G02G25G31G29
 118594241.880 8  22567711.898
 119254201.488 7  22693302.174
 127939222.680 6  24346020.244
 113636609.878 8  21624316.580
 128561514.663 6  24464388.028
 107349621.057 8  20427950.013
 119813477.376 7  22799747.302
 108904811.126 8  20723879.397
 14  2 15  0 12 30.0000000  0  8G12G05G18G21G02G25G31G29
 118679735.543 8  22583980.595
 119272987.654 7  22696877.845
 127844336.135 6  24327964.209
 113592775.314 8  21615975.093
 128652085.523 6  24481625.072
 107381576.039 9  20434030.781
 119817231.450 7  22800461.757
 108907205.377 9  20724335.077
 14  2 15  0 13  0.0000000  0  8G12G05G18G21G02G25G31G29
 118765520.497 8  22600304.753
 119292333.627 7  22700558.745
 127749402.279 6  24309898.120
 113549281.405 8  21607698.310
 128742666.361 6  24498861.206
 107414024.852 9  20440205.605
 119821503.130 8  22801274.318
 108909750.209 8  20724819.670
 14  2 15  0 13 30.0000000  0  8G12G05G18G21G02G25G31G29
 118851601.972 8  22616685.759
 119312245.282 7  22704347.654
 127654429.339 6  24291824.632
 113506134.597 8  21599487.770
 128833261.991 6  24516100.394
 107446973.755 9  20446475.525
 119826297.955 7  22802186.897
 108912451.548 8  20725333.854
 14  2 15  0 14  0.0000000  0  8G12G05G18G21G02G25G31G29
 118937980.560 7  22633123.409
 119332724.532 7  22708244.865
 127559421.328 6  24273744.291
 113463336.776 8  21591343.795
 128923872.680 6  24533343.813
 107480424.488 9  20452841.173
 119831617.176 8  22803198.823
 108915312.245 8  20725877.915
 14  2 15  0 14 30.0000000  0  8G12G05G18G21G02G25G31G29
 119024647.392 7  22649615.393
 119353763.722 7  22712248.506
 127464373.492 6  24255658.198
 113420880.273 8  21583264.619
 129014489.814 6  24550587.423
 107514369.593 8  20459300.793
 119837452.282 8  22804309.794
 108918324.939 8  20726451.367
 14  2 15  0 15  0.0000000  0  8G12G05G18G21G02G25G31G29
 119111610.777 8  22666163.685
 119375372.355 7  22716360.411
 127369297.248 6  24237566.931
 113378775.196 8  21575252.445
 129105121.546 6  24567834.858
 107548818.601 9  20465856.087
 119843812.525 7  22805519.661
 108921499.092 8  20727055.168
 14  2 15  0 15 30.0000000  0  8G12G05G18G21G02G25G31G29
 119198854.992 8  22682766.447
 119397535.562 7  22720577.689
 127274181.881 6  24219468.032
 113337006.898 8  21567304.159
 129195751.976 6  24585080.782
 107583756.919 9  20472504.791
 119850682.464 8  22806826.958
 108924820.282 9  20727687.114
 14  2 15  0 16  0.0000000  0  8G12G05G18G21G02G25G31G29
 119286398.535 8  22699424.825
 119420273.204 8  22724904.310
 127179049.758 6  24201363.320
 113295596.072 8  21559423.783
 129286400.039 6  24602330.911
 107619204.804 9  20479250.320
 119858081.773 8  22808235.560
 108928309.146 9  20728350.887
 14  2 15  0 16 30.0000000  0  8G12G05G18G21G02G25G31G29
 119374222.488 8  22716137.454
 119443566.563 7  22729337.115
 127083884.353 6  24183253.214
 113254524.022 8  21551608.177
 129377046.233 6  24619579.986
 107655143.572 9  20486089.312
 119865991.210 7  22809739.802
 108931947.471 8  20729043.193
 14  2 15  0 17  0.0000000  0  8G12G05G18G21G02G25G31G29
 119462332.238 8  22732904.418
 119467422.336 7  22733876.741
 126988695.988 6  24165138.994
 113213797.899 8  21543858.190
 129467695.970 6  24636829.288
 107691580.246 9  20493022.662
 119874416.839 8  22811343.500
 108935742.544 9  20729765.378
 14  2 15  0 17 30.0000000  0  8G12G05G18G21G02G25G31G29
 119550730.011 8  22749725.723
 119491843.889 7  22738523.960
 126893490.859 7  24147023.404
 113173421.094 8  21536174.674
 129558351.505 6  24654081.754
 107728518.189 9  20500051.819
 119883361.635 8  22813045.827
 108939697.947 8  20730518.214
 14  2 15  0 18  0.0000000  0  8G12G05G18G21G02G25G31G29
 119639411.305 7  22766600.967
 119516827.933 7  22743278.355
 126798268.089 6  24128903.892
 113133390.560 8  21528557.037
 129649008.442 6  24671333.506
 107765954.104 9  20507175.739
 119892821.420 7  22814845.884
 108943810.890 8  20731300.679
 14  2 15  0 18 30.0000000  0  8G12G05G18G21G02G25G31G29
 119728369.091 8  22783529.452
 119542368.283 7  22748138.920
 126703024.233 6  24110777.772
 113093701.404 8  21521004.350
 129739659.835 6  24688582.739
 107803882.320 9  20514393.000
 119902789.940 8  22816742.907
 108948075.488 9  20732112.484
 14  2 15  0 19  0.0000000  0  8G12G05G18G21G02G25G31G29
 119817605.745 8  22800510.119
 119568468.570 8  22753105.366
 126607766.573 6  24092651.793
 113054357.212 8  21513517.555
 129830308.537 6  24705832.456
 107842306.615 9  20521705.188
 119913270.229 8  22818737.145
 108952496.638 8  20732953.527
 14  2 15  0 19 30.0000000  0  8G12G05G18G21G02G25G31G29
 119907125.032 8  22817545.650
 119595132.589 7  22758179.210
 126512501.541 6  24074522.046
 113015362.345 8  21506097.034
 129920957.232 6  24723082.351
 107881230.897 9  20529112.318
 119924265.465 7  22820829.068
 108957078.683 9  20733825.964
 14  2 15  0 20  0.0000000  0  8G12G05G18G21G02G25G31G29
 119996915.320 8  22834631.768
 119622350.166 7  22763358.396
 126417221.686 6  24056391.421
 112976705.810 8  21498741.192
 130011594.849 6  24740329.954
 107920644.973 9  20536612.326
 119935764.826 7  22823017.966
 108961811.754 8  20734726.566
 14  2 15  0 20 30.0000000  0  8G12G05G18G21G02G25G31G29
 120086988.562 7  22851771.895
 119650134.814 7  22768645.243
 126321943.385 6  24038260.320
 112938402.413 8  21491451.944
 130102234.169 6  24757580.255
 107960562.655 9  20544208.215
 119947781.232 7  22825304.457
 108966710.120 9  20735658.487
 14  2 15  0 21  0.0000000  0  8G12G05G18G21G02G25G31G29
 120177330.612 7  22868963.835
 119678472.674 7  22774038.088
 126226656.491 6  24020128.517
 112900438.622 8  21484227.869
 130192860.736 6  24774825.161
 108000970.417 8  20551897.990
 119960300.825 8  22827687.111
 108971760.651 8  20736619.359
 14  2 15  0 21 30.0000000  0  8G12G05G18G21G02G25G31G29
 120267945.977 7  22886207.519
 119707368.488 7  22779537.125
 126131369.453 6  24001996.177
 112862819.810 8  21477069.077
 130283479.060 6  24792070.017
 108041873.654 9  20559681.324
 119973328.112 8  22830165.584
 108976969.472 9  20737610.305
 14  2 15  0 22  0.0000000  0  8G12G05G18G21G02G25G31G29
 120358829.572 7  22903501.793
 119736819.242 7  22785141.188
 126036081.425 6  23983863.669
 112825544.047 8  21469975.889
 130374084.690 6  24809310.946
 108083268.908 9  20567558.759
 119986858.845 7  22832740.837
 108982333.710 8  20738631.235
 14  2 15  0 22 30.0000000  0  8G12G05G18G21G02G25G31G29
 120449987.286 8  22920849.351
 119766831.211 7  22790852.082
 125940802.059 6  23965731.826
 112788616.656 8  21462948.912
 130464683.455 6  24826552.148
 108125162.943 8  20575530.836
 120000899.204 7  22835412.656
 108987860.678 8  20739683.366
 14  2 15  0 23  0.0000000  0  8G12G05G18G21G02G25G31G29
 120541413.127 8  22938246.582
 119797398.667 7  22796669.340
 125845528.706 6  23947602.005
 112752033.642 8  21455987.324
 130555268.728 6  24843790.125
 108167550.220 9  20583597.009
 120015442.759 8  22838180.250
 108993545.446 9  20740765.198
 14  2 15  0 23 30.0000000  0  8G12G05G18G21G02G25G31G29
 120633099.307 7  22955693.795
 119828515.011 7  22802590.107
 125750258.140 6  23929471.555
 112715788.865 8  21449090.208
 130645833.675 6  24861022.718
 108210424.556 9  20591755.722
 120030482.682 8  22841042.227
 108999382.484 9  20741875.874
 14  2 15  0 24  0.0000000  0  8G12G05G18G21G02G25G31G29
 120725053.754 8  22973192.450
 119860189.137 7  22808618.151
 125655002.384 6  23911345.731
 112679890.636 8  21442258.756
 130736386.419 6  24878253.714
 108253794.850 9  20600008.969
 120046027.272 8  22844000.169
 109005381.560 8  20743017.117
 14  2 15  0 24 30.0000000  0  8G12G05G18G21G02G25G31G29
 120817273.720 7  22990741.224
 119892419.302 7  22814751.574
 125559762.937 6  23893221.983
 112644339.017 8  21435493.699
 130826924.872 6  24895483.028
 108297659.784 9  20608356.200
 120062074.571 7  22847053.706
 109011541.812 8  20744189.469
 14  2 15  0 25  0.0000000  0  8G12G05G18G21G02G25G31G29
 120909753.497 7  23008339.293
 119925200.102 7  22820989.402
 125464537.621 6  23875100.442
 112609128.429 8  21428793.196
 130917442.851 6  24912706.960
 108342013.975 9  20616796.252
 120078618.293 8  22850202.012
 109017858.529 9  20745391.550
 14  2 15  0 25 30.0000000  0  8G12G05G18G21G02G25G31G29
 121002487.423 7  23025986.000
 119958527.007 7  22827330.698
 125369325.161 6  23856982.405
 112574255.069 8  21422156.928
 131007935.337 6  24929930.003
 108386853.168 9  20625329.044
 120095653.508 8  22853443.816
 109024328.603 8  20746623.039
 14  2 15  0 26  0.0000000  0  8G12G05G18G21G02G25G31G29
 121095482.705 7  23043682.573
 119992407.956 7  22833778.912
 125274137.231 7  23838869.743
 112539727.301 8  21415586.512
 131098410.020 6  24947146.331
 108432185.646 9  20633955.439
 120113187.742 8  22856780.082
 109030960.897 9  20747885.161
 14  2 15  0 26 30.0000000  0  8G12G05G18G21G02G25G31G29
 121188733.898 7  23061427.960
 120026838.071 8  22840330.551
 125178972.155 6  23820760.355
 112505540.664 8  21409081.085
 131188861.546 6  24964358.863
 108478006.842 9  20642675.076
 120131215.685 7  22860211.197
 109037751.688 8  20749176.942
 14  2 15  0 27  0.0000000  0  8G12G05G18G21G02G25G31G29
 121282237.503 8  23079220.948
 120061814.457 7  22846985.321
 125083830.290 6  23802655.415
 112471693.527 8  21402640.209
 131279286.518 6  24981564.915
 108524313.925 9  20651486.793
 120149734.067 7  22863734.962
 109044698.762 8  20750499.028
 14  2 15  0 27 30.0000000  0  8G12G05G18G21G02G25G31G29
 121376004.289 7  23097064.348
 120097348.790 7  22853748.246
 124988726.698 6  23784557.899
 112438197.650 8  21396266.177
 131369696.699 6  24998769.177
 108571119.063 9  20660393.453
 120168753.950 7  22867354.744
 109051815.149 8  20751852.952
 14  2 15  0 28  0.0000000  0  8G12G05G18G21G02G25G31G29
 121470014.762 7  23114953.113
 120133422.377 7  22860613.122
 124893646.321 7  23766464.219
 112405035.248 8  21389955.447
 131460072.492 6  25015967.182
 108618403.712 9  20669391.714
 120188256.291 7  22871065.142
 109059083.531 8  20753236.549
 14  2 15  0 28 30.0000000  0  8G12G05G18G21G02G25G31G29
 121564278.439 7  23132890.682
 120170045.107 7  22867581.670
 124798602.559 7  23748379.309
 112372216.810 8  21383710.745
 131550423.843 6  25033161.582
 108666178.170 9  20678482.908
 120208250.317 7  22874870.563
 109066514.570 8  20754650.739
 14  2 15  0 29  0.0000000  0  8G12G05G18G21G02G25G31G29
 121658793.779 7  23150876.668
 120207216.281 7  22874655.083
 124703598.103 6  23730300.466
 112339742.403 8  21377530.715
 131640749.960 6  25050350.798
 108714442.033 9  20687666.931
 120228735.222 8  22878768.941
 109074109.477 9  20756095.594
 14  2 15  0 29 30.0000000  0  8G12G05G18G21G02G25G31G29
 121753548.989 7  23168908.518
 120244924.689 8  22881830.687
 124608625.106 6  23712227.312
 112307600.754 8  21371414.569
 131731039.190 6  25067531.914
 108763184.228 9  20696942.615
 120249699.110 7  22882757.524
 109081857.547 8  20757570.158
 14  2 15  0 30  0.0000000  0  8G12G05G18G21G02G25G31G29
 121848554.156 7  23186986.826
 120283180.939 8  22889110.942
 124513697.932 6  23694162.726
 112275803.743 8  21365363.854
 131821301.638 6  25084707.111
 108812415.635 8  20706310.965
 120271152.250 7  22886840.119
 109089771.010 8  20759076.186
 14  2 15  0 30 30.0000000  0  8G12G05G18G21G02G25G31G29
 121943801.845 7  23205111.674
 120321978.785 8  22896493.761
 124418814.174 7  23676106.610
 112244345.946 8  21359377.409
 131911531.326 6  25101878.610
 108862130.429 8  20715771.467
 120293087.897 7  22891014.575
 109097844.615 8  20760612.436
 14  2 15  0 31  0.0000000  0  8G12G05G18G21G02G25G31G29
 122039287.741 7  23223282.938
 120361313.850 8  22903978.928
 124323972.777 7  23658059.510
 112213223.099 8  21353454.877
 132001723.823 6  25119041.562
 108912324.588 8  20725322.964
 120315501.389 7  22895279.894
 109106075.965 8  20762178.922
 14  2 15  0 31 30.0000000  0  8G12G05G18G21G02G25G31G29
 122135014.305 7  23241499.491
 120401189.066 7  22911567.227
 124229180.304 6  23640020.685
 112182439.231 8  21347596.731
 132091881.720 6  25136198.134
 108963001.156 9  20734966.306
 120338395.017 8  22899636.839
 109114468.863 8  20763775.928
 14  2 15  0 32  0.0000000  0  7G12G05G18G21G25G31G29
 122230980.520 7  23259760.884
 120441604.628 7  22919257.227
 124134440.329 7  23621992.234
 112151994.912 8  21341803.729
 109014160.434 9  20744701.362
 120361768.253 8  22904083.577
 109123024.714 8  20765404.452
 14  2 15  0 32 30.0000000  0  7G12G05G18G21G25G31G29
 122327187.681 7  23278068.430
 120482562.287 7  22927051.922
 124039758.637 7  23603975.403
 112121892.771 8  21336075.159
 109065804.804 8  20754529.360
 120385622.865 7  22908623.041
 109131746.925 8  20767064.007
 14  2 15  0 33  0.0000000  0  7G12G05G18G21G25G31G29
 122423623.169 7  23296418.906
 120524049.470 8  22934946.630
 123945126.297 7  23585967.701
 112092121.162 8  21330409.988
 109117922.007 9  20764446.869
 120409945.696 8  22913251.713
 109140624.319 8  20768752.882
 14  2 15  0 33 30.0000000  0  7G12G05G18G21G25G31G29
 122520297.987 7  23314816.968
 120566078.160 8  22942944.215
 123850559.038 7  23567970.700
 112062692.732 8  21324810.098
 109170524.265 8  20774456.904
 120434748.298 7  22917971.397
 109149670.514 8  20770475.216
 14  2 15  0 34  0.0000000  0  7G12G05G18G21G25G31G29
 122617196.735 7  23333254.639
 120608633.401 7  22951042.512
 123756045.491 6  23549985.594
 112033593.314 8  21319272.200
 109223596.954 8  20784556.072
 120460015.198 8  22922779.845
 109158871.765 8  20772225.541
 14  2 15  0 34 30.0000000  0  7G12G05G18G21G25G31G29
 122714336.063 7  23351740.211
 120651732.455 7  22959244.114
 123661606.833 7  23532014.902
 112004840.755 8  21313800.756
 109277157.494 8  20794748.438
 120485763.334 7  22927679.818
 109168246.899 8  20774009.533
 14  2 15  0 35  0.0000000  0  7G12G05G18G21G25G31G29
 122811696.330 7  23370267.173
 120695355.804 8  22967545.552
 123567227.403 7  23514054.499
 111976416.763 8  21308391.947
 109331187.018 9  20805029.780
 120511973.010 7  22932667.151
 109177777.958 8  20775823.419
 14  2 15  0 35 30.0000000  0  7G12G05G18G21G25G31G29
 122909279.571 7  23388837.101
 120739506.075 7  22975946.530
 123472913.282 7  23496107.987
 111948323.996 8  21303046.228
 109385688.137 8  20815401.209
 120538645.930 8  22937743.288
 109187469.382 8  20777667.744
 14  2 15  0 36  0.0000000  0  7G12G05G18G21G25G31G29
 123007093.608 7  23407449.857
 120784191.786 7  22984450.449
 123378677.151 7  23478174.934
 111920572.054 8  21297765.330
 109440669.738 8  20825863.683
 120565790.553 7  22942907.687
 109197330.933 9  20779544.405
 14  2 15  0 36 30.0000000  0  7G12G05G18G21G25G31G29
 123105126.666 7  23426105.771
 120829401.520 7  22993053.279
 123284511.502 6  23460255.670
 111893150.708 8  21292546.925
 109496120.882 8  20836416.001
 120593394.884 7  22948160.538
 109207352.967 8  20781450.981
 14  2 15  0 37  0.0000000  0  7G12G05G18G21G25G31G29
 123203378.598 7  23444802.332
 120875135.583 7  23001755.625
 123190420.199 7  23442351.531
 111866060.627 8  21287391.981
 109552042.024 9  20847057.288
 120621458.584 7  22953500.955
 109217537.042 8  20783389.048
 14  2 15  0 37 30.0000000  0  7G12G05G18G21G25G31G29
 123301855.841 7  23463542.882
 120921400.516 7  23010559.620
 123096413.974 7  23424462.457
 111839309.803 8  21282301.540
 109608440.371 8  20857789.227
 120649988.389 7  22958930.150
 109227892.253 8  20785359.807
 14  2 15  0 38  0.0000000  0  7G12G05G18G21G25G31G29
 123400543.002 7  23482320.719
 120968181.619 7  23019461.699
 123002481.968 7  23406588.403
 111812884.012 8  21277272.762
 109665301.333 8  20868609.587
 120678968.594 7  22964445.261
 109238405.273 8  20787360.619
 14  2 15  0 38 30.0000000  0  7G12G05G18G21G25G31G29
 123499454.597 7  23501143.033
 121015493.631 8  23028465.690
 122908643.187 7  23388731.179
 111786798.860 8  21272308.923
 109722640.255 8  20879521.101
 120708413.955 7  22970047.826
 109249092.344 8  20789393.992
 14  2 15  0 39  0.0000000  0  7G12G05G18G21G25G31G29
 123598573.750 7  23520004.138
 121063320.768 8  23037566.446
 122814884.768 7  23370890.525
 111761038.950 8  21267406.756
 109780440.937 9  20890520.279
 120738307.692 7  22975736.861
 109259939.140 8  20791458.270
 14  2 15  0 39 30.0000000  0  7G12G05G18G21G25G31G29
 123697902.086 7  23538906.209
 121111664.107 7  23046766.106
 122721212.838 7  23353064.764
 111735606.904 8  21262566.865
 109838705.413 8  20901607.602
 120768651.293 7  22981511.248
 109270948.997 8  20793553.427
 14  2 15  0 40  0.0000000  0  7G12G05G18G21G25G31G29
 123797446.009 7  23557848.908
 121160530.412 7  23056065.083
 122627638.142 7  23335258.154
 111710510.138 8  21257791.319
 109897440.849 9  20912784.495
 120799450.614 7  22987371.850
 109282130.452 8  20795680.933
 14  2 15  0 40 30.0000000  0  7G12G05G18G21G25G31G29
 123897199.214 7  23576831.255
 121209914.086 7  23065462.416
 122534158.840 7  23317470.064
 111685743.639 8  21253078.730
 109956641.770 8  20924049.698
 120830699.325 7  22993318.712
 109293479.659 8  20797840.526
 14  2 15  0 41  0.0000000  0  7G12G05G18G21G25G31G29
 123997155.668 7  23595853.552
 121259809.861 7  23074957.468
 122440773.669 7  23299698.170
 111661303.036 8  21248428.183
 110016303.011 8  20935403.177
 120862391.981 7  22999349.914
 109304992.749 8  20800031.699
 14  2 15  0 41 30.0000000  0  7G12G05G18G21G25G31G29
 124097315.239 7  23614913.604
 121310217.259 7  23084549.214
 122347486.390 7  23281946.004
 111637189.262 8  21243839.013
 110076424.880 8  20946844.127
 120894528.086 7  23005464.982
 109316671.814 8  20802254.089
 14  2 15  0 42  0.0000000  0  7G12G05G18G21G25G31G29
 124197680.635 7  23634011.524
 121361139.273 7  23094240.224
 122254303.818 7  23264213.804
 111613405.860 8  21239313.102
 110137010.494 8  20958372.960
 120927109.977 7  23011664.047
 109328521.440 9  20804509.206
 14  2 15  0 42 30.0000000  0  7G12G05G18G21G25G31G29
 124298247.562 7  23653148.864
 121412572.261 7  23104026.968
 122161226.643 7  23246502.688
 111589950.644 8  21234849.923
 110198056.670 8  20969989.576
 120960133.386 7  23017949.577
 109340539.946 8  20806795.943
 14  2 15  0 43  0.0000000  0  7G12G05G18G21G25G31G29
 124399011.389 7  23672322.775
 121464511.681 7  23113910.820
 122068254.667 7  23228810.016
 111566819.878 8  21230448.235
 110259559.346 8  20981693.306
 120993593.763 7  23024316.929
 109352724.870 8  20809114.896
 14  2 15  0 43 30.0000000  0  7G12G05G18G21G25G31G29
 124499971.505 7  23691535.094
 121516957.331 7  23123891.064
 121975391.595 7  23211139.107
 111544014.074 8  21226108.388
 110321518.455 8  20993483.960
 121027490.392 7  23030766.804
 109365077.832 8  20811465.257
 14  2 15  0 44  0.0000000  0  7G12G05G18G21G25G31G29
 124601130.468 7  23710784.974
 121569912.312 7  23133966.851
 121882644.197 7  23193489.828
 111521537.225 8  21221830.909
 110383937.452 9  21005361.794
 121061825.794 7  23037300.725
 109377603.795 9  20813849.064
 14  2 15  0 44 30.0000000  0  7G12G05G18G21G25G31G29
 124702484.539 7  23730072.248
 121623372.213 7  23144140.726
 121790012.360 7  23175861.685
 111499386.003 8  21217616.065
 110446812.394 8  21017326.502
 121096595.379 7  23043917.330
 109390300.561 9  20816265.129
 14  2 15  0 45  0.0000000  0  7G12G05G18G21G25G31G29
 124804026.024 7  23749394.488
 121677330.071 7  23154408.780
 121697493.797 7  23158257.331
 111477554.383 8  21213461.334
 110510136.601 9  21029376.711
 121131791.737 7  23050614.758
 109403162.927 8  20818712.852
 14  2 15  0 45 30.0000000  0  7G12G05G18G21G25G31G29
 124905757.513 7  23768753.972
 121731788.884 7  23164772.108
 121605095.754 7  23140673.697
 111456045.938 8  21209368.549
 110573913.431 9  21041513.086
 121167417.380 7  23057393.972
 109416196.354 9  20821192.890
 14  2 15  0 46  0.0000000  0  7G12G05G18G21G25G31G29
 125007678.032 7  23788149.915
 121786747.410 7  23175230.315
 121512821.281 7  23123114.659
 111434861.386 8  21205337.578
 110638142.198 8  21053735.123
 121203470.873 7  23064255.244
 109429401.390 8  20823705.653
 14  2 15  0 46 30.0000000  0  7G12G05G18G21G25G31G29
 125109785.639 7  23807578.827
 121842204.161 7  23185782.919
 121420672.975 7  23105579.209
 111413999.739 8  21201368.051
 110702821.647 8  21066043.247
 121239950.364 8  23071197.078
 109442778.981 8  20826251.645
 14  2 15  0 47  0.0000000  0  7G12G05G18G21G25G31G29
 125212071.617 7  23827044.210
 121898150.641 7  23196429.892
 121328646.426 7  23088067.527
 111393453.499 8  21197457.772
 110767943.614 8  21078435.746
 121276846.770 7  23078217.791
 109456322.757 8  20828828.826
 14  2 15  0 47 30.0000000  0  7G12G05G18G21G25G31G29
 125314547.032 7  23846545.178
 121954598.190 7  23207170.460
 121236757.632 7  23070581.016
 111373235.143 8  21193610.223
 110833519.817 8  21090914.447
 121314171.050 7  23085321.106
 109470045.916 8  20831440.304
 14  2 15  0 48  0.0000000  0  7G12G05G18G21G25G31G29
 125417200.215 7  23866078.772
 122011535.248 7  23218005.550
 121144998.992 7  23053119.762
 111353334.091 8  21189823.387
 110899538.909 8  21103477.520
 121351911.190 8  23092502.713
 109483938.766 8  20834083.560
 14  2 15  0 48 30.0000000  0  7G12G05G18G21G25G31G29
 125520029.906 7  23885646.126
 122068960.352 7  23228933.236
 121053373.582 7  23035683.286
 111333749.797 8  21186096.731
 110966000.079 8  21116124.781
 121390065.493 7  23099763.189
 109498002.721 8  20836759.846
 14  2 15  0 49  0.0000000  0  7G12G05G18G21G25G31G29
 125623040.669 7  23905248.408
 122126878.695 7  23239955.066
 120961891.135 7  23018275.238
 111314488.107 8  21182431.131
 111032908.676 8  21128856.794
 121428638.824 8  23107103.341
 109512244.955 8  20839470.262
 14  2 15  0 49 30.0000000  0  7G12G05G18G21G25G31G29
 125726224.236 7  23924883.973
 122185281.948 7  23251068.526
 120870547.288 7  23000893.539
 111295542.626 8  21178825.719
 111100256.669 8  21141672.752
 121467622.318 7  23114521.134
 109526659.209 9  20842213.680
 14  2 15  0 50  0.0000000  0  7G12G05G18G21G25G31G29
 125829574.451 7  23944551.439
 122244163.890 7  23262273.299
 120779340.416 7  22983538.086
 111276907.837 8  21175279.729
 111168038.390 8  21154571.564
 121507009.497 8  23122016.992
 109541241.699 8  20844988.709
 14  2 15  0 50 30.0000000  0  7G12G05G18G21G25G31G29
 125933101.642 7  23964251.974
 122303535.012 7  23273571.247
 120688285.595 7  22966210.129
 111258595.615 8  21171795.381
 111236264.816 8  21167554.186
 121546810.565 7  23129590.866
 109556005.197 8  20847797.766
 14  2 15  0 51  0.0000000  0  7G12G05G18G21G25G31G29
 126036798.179 7  23983984.861
 122363387.925 7  23284961.721
 120597379.454 7  22948911.350
 111240599.405 8  21168370.736
 111304928.746 8  21180620.691
 121587017.617 7  23137241.837
 109570944.536 8  20850640.798
 14  2 15  0 51 30.0000000  0  7G12G05G18G21G25G31G29
 126140655.158 7  24003747.620
 122423712.962 7  23296440.752
 120506616.959 7  22931640.191
 111222910.422 8  21165004.908
 111374021.229 8  21193768.667
 121627621.036 7  23144968.080
 109586052.758 8  20853515.742
 14  2 15  0 52  0.0000000  0  7G12G05G18G21G25G31G29
 126244679.315 7  24023542.612
 122484517.973 7  23308011.668
 120416010.240 7  22914399.094
 111205537.726 8  21161698.973
 111443550.070 8  21206999.412
 121668627.699 7  23152771.602
 109601339.731 9  20856424.505
 14  2 15  0 52 30.0000000  0  7G12G05G18G21G25G31G29
 126348869.053 7  24043370.175
 122545801.383 7  23319673.134
 120325562.311 7  22897186.861
 111188480.883 8  21158453.175
 111513513.917 8  21220313.286
 121710035.429 7  23160651.285
 109616805.992 8  20859367.962
 14  2 15  0 53  0.0000000  0  7G12G05G18G21G25G31G29
 126453220.116 7  24063227.078
 122607558.654 7  23331425.000
 120235273.058 7  22880005.571
 111171736.350 8  21155266.162
 111583908.837 8  21233708.574
 121751839.888 7  23168606.216
 109632449.231 8  20862344.736
 14  2 15  0 53 30.0000000  0  7G12G05G18G21G25G31G29
 126557726.176 7  24083113.509
 122669783.517 7  23343266.294
 120145140.548 7  22862854.039
 111155299.242 8  21152138.501
 111654728.844 8  21247185.459
 121794034.445 7  23176635.510
 109648266.064 8  20865354.798
 14  2 15  0 54  0.0000000  0  7G12G05G18G21G25G31G29
 126662389.216 7  24103030.173
 122732477.799 7  23355196.935
 120055171.407 7  22845732.979
 111139172.453 8  21149069.542
 111725976.256 8  21260743.353
 121836620.367 7  23184739.610
 109664260.837 8  20868397.991
 14  2 15  0 54 30.0000000  0  7G12G05G18G21G25G31G29
 126767214.331 7  24122977.024
 122795646.690 7  23367217.106
 119965375.408 7  22828644.836
 111123362.560 8  21146061.232
 111797656.824 8  21274383.798
 121879602.548 7  23192918.812
 109680441.064 8  20871476.924
 14  2 15  0 55  0.0000000  0  7G12G05G18G21G25G31G29
 126872189.056 7  24142952.337
 122859277.725 7  23379326.176
 119875744.575 7  22811588.581
 111107858.301 8  21143110.580
 111869758.505 8  21288104.187
 121922968.513 7  23201170.798
 109696796.904 8  20874589.801
 14  2 15  0 55 30.0000000  0  7G12G05G18G21G25G31G29
 126977310.047 7  24162958.124
 122923367.684 7  23391521.646
 119786280.106 7  22794563.938
 111092657.242 8  21140218.165
 111942277.931 8  21301904.345
 121966714.172 7  23209495.727
 109713326.936 8  20877735.406
 14  2 15  0 56  0.0000000  0  7G12G05G18G21G25G31G29
 127082582.657 7  24182989.847
 122987921.885 7  23403805.721
 119696991.654 7  22777572.951
 111077765.734 8  21137384.461
 112015220.945 8  21315785.083
 122010844.308 7  23217893.793
 109730039.255 8  20880915.356
 14  2 15  0 56 30.0000000  0  7G12G05G18G21G25G31G29
 127188007.554 7  24203052.381
 123052940.797 7  23416178.124
 119607884.500 7  22760616.406
 111063185.534 8  21134609.746
 112088588.709 8  21329746.124
 122055359.781 7  23226364.257
 109746936.996 8  20884131.127
 14  2 15  0 57  0.0000000  0  7G12G05G18G21G25G31G29
 127293570.437 7  24223139.509
 123118410.168 7  23428636.687
 119518949.003 7  22743693.308
 111048903.916 8  21131892.016
 112162367.101 8  21343785.849
 122100245.543 7  23234906.026
 109764008.571 8  20887379.670
 14  2 15  0 57 30.0000000  0  7G12G05G18G21G25G31G29
 127399278.694 7  24243256.381
 123184336.726 7  23441182.924
 119430196.672 7  22726804.522
 111034928.873 8  21129232.366
 112236563.645 8  21357904.510
 122145508.252 7  23243519.472
 109781263.526 9  20890662.906
 14  2 15  0 58  0.0000000  0  7G12G05G18G21G25G31G29
 127505126.646 7  24263398.872
 123250715.901 7  23453814.115
 119341626.902 7  22709949.695
 111021256.509 8  21126630.587
 112311173.415 8  21372102.663
 122191142.497 7  23252203.014
 109798699.341 8  20893981.117
 14  2 15  0 58 30.0000000  0  7G12G05G18G21G25G31G29
 127611112.879 7  24283566.871
 123317545.670 7  23466531.520
 119253242.516 8  22693131.267
 111007886.013 8  21124086.519
 112386194.997 8  21386378.949
 122237146.199 7  23260957.150
 109816316.653 8  20897333.328
 14  2 15  0 59  0.0000000  0  7G12G05G18G21G25G31G29
 127717242.381 7  24303763.498
 123384830.643 7  23479334.875
 119165053.107 7  22676349.399
 110994823.633 8  21121600.807
 112461633.775 8  21400734.494
 122283523.741 7  23269782.151
 109834122.697 8  20900721.892
 14  2 15  0 59 30.0000000  0  7G12G05G18G21G25G31G29
 127823501.983 7  24323982.978
 123452557.732 7  23492222.816
 119077049.842 7  22659602.105
 110982057.134 8  21119171.588
 112537476.676 8  21415167.158
 122330261.647 7  23278676.043
 109852106.995 8  20904144.327
 14  2 15  1  0  0.0000000  0  7G12G05G18G21G25G31G29
 127929898.512 7  24344228.870
 123520733.585 7  23505197.059
 118989243.866 7  22642893.121
 110969594.782 8  21116800.287
 112613730.636 8  21429677.551
 122377365.862 7  23287640.540
 109870278.972 9  20907602.707
 14  2 15  1  0 30.0000000  0  7G12G05G18G21G25G31G29
 128036421.986 7  24364500.418
 123589348.468 7  23518253.609
 118901630.042 7  22626220.389
 110957427.679 8  21114484.989
 112690386.309 8  21444264.753
 122424826.296 7  23296672.057
 109888631.231 9  20911094.833
 14  2 15  1  1  0.0000000  0  7G12G05G18G21G25G31G29
 128143075.123 7  24384796.486
 123658404.642 7  23531394.774
 118814216.056 7  22609586.880
 110945559.483 8  21112226.405
 112767446.530 8  21458928.596
 122472645.201 7  23305771.302
 109907169.031 8  20914622.088
 14  2 15  1  1 30.0000000  0  7G12G05G18G21G25G31G29
 128249855.894 7  24405116.205
 123727900.237 7  23544619.341
 118727004.111 7  22592991.256
 110933989.690 8  21110024.498
 112844909.702 8  21473669.622
 122520820.367 7  23314938.149
 109925893.086 8  20918185.221
 14  2 15  1  2  0.0000000  0  7G12G05G18G21G25G31G29
 128356759.625 6  24425457.503
 123797829.870 7  23557927.494
 118639993.903 8  22576433.275
 110922714.476 8  21107878.699
 112922771.151 8  21488486.223
 122569346.315 7  23324172.247
 109944800.785 9  20921783.318
 14  2 15  1  2 30.0000000  0  7G12G05G18G21G25G31G29
 128463790.798 7  24445825.846
 123868198.460 7  23571317.828
 118553194.706 7  22559916.191
 110911739.544 8  21105790.395
 113001035.709 8  21503379.299
 122618226.938 7  23333474.800
 109963899.777 8  20925417.839
 14  2 15  1  3  0.0000000  0  7G12G05G18G21G25G31G29
 128570941.861 7  24466216.522
 123938997.790 7  23584789.837
 118466603.098 7  22543437.322
 110901057.912 8  21103758.166
 113079695.633 8  21518348.009
 122667454.203 7  23342843.088
 109983184.503 8  20929087.472
 14  2 15  1  3 30.0000000  0  7G12G05G18G21G25G31G29
 128678208.429 6  24486627.674
 124010223.743 7  23598344.429
 118380219.537 7  22526999.660
 110890666.861 8  21101780.492
 113158747.051 8  21533390.788
 122717023.319 7  23352275.286
 110002653.468 9  20932792.245
 14  2 15  1  4  0.0000000  0  7G12G05G18G21G25G31G29
 128785591.130 7  24507062.378
 124081877.038 7  23611978.813
 118294049.676 8  22510601.984
 110880568.434 8  21099858.828
 113238191.156 8  21548508.626
 122766934.627 7  23361772.505
 110022310.416 9  20936532.961
 14  2 15  1  4 30.0000000  0  7G12G05G18G21G25G31G29
 128893093.228 7  24527518.991
 124153960.112 7  23625695.285
 118208100.473 8  22494246.162
 110870765.990 8  21097993.271
 113318030.694 8  21563701.668
 122817190.595 7  23371335.382
 110042159.834 8  20940310.166
 14  2 15  1  5  0.0000000  0  7G12G05G18G21G25G31G29
 129000706.364 7  24547997.517
 124226464.599 7  23639492.431
 118122368.260 8  22477932.128
 110861252.366 8  21096183.181
 113398257.590 8  21578968.157
 122867782.213 7  23380962.443
 110062196.891 8  20944123.108
 14  2 15  1  5 30.0000000  0  7G12G05G18G21G25G31G29
 129108432.850 7  24568497.775
 124299392.549 7  23653371.335
 118036860.148 8  22461660.632
 110852031.834 8  21094428.530
 113478874.493 8  21594308.998
 122918711.309 7  23390655.336
 110082426.466 8  20947972.762
 14  2 15  1  6  0.0000000  0  7G12G05G18G21G25G31G29
 129216259.521 7  24589017.240
 124372730.358 7  23667326.985
 117951567.064 8  22445429.889
 110843091.736 8  21092727.345
 113559868.249 8  21609721.493
 122969964.485 7  23400407.919
 110102837.624 8  20951856.651
 14  2 15  1  6 30.0000000  0  7G12G05G18G21G25G31G29
 129324194.859 7  24609556.469
 124446486.456 7  23681362.487
 117866502.439 8  22429242.949
 110834441.736 8  21091081.313
 113641247.544 8  21625207.389
 123021549.435 7  23410223.815
 110123441.808 8  20955777.459
 14  2 15  1  7  0.0000000  0  7G12G05G18G21G25G31G29
 129432234.786 7  24630115.186
 124520657.188 7  23695475.570
 117781666.397 8  22413098.907
 110826079.249 8  21089489.995
 113723008.655 8  21640765.982
 123073461.689 7  23420103.134
 110144237.348 9  20959734.774
 14  2 15  1  7 30.0000000  0  7G12G05G18G21G25G31G29
 129540386.218 6  24650693.371
 124595248.446 7  23709669.357
 117697070.680 7  22397000.566
 110818011.688 8  21087954.964
 113805158.338 8  21656398.547
 123125707.301 7  23430045.511
 110165234.155 8  20963730.628
 14  2 15  1  8  0.0000000  0  7G12G05G18G21G25G31G29
 129648629.549 6  24671291.471
 124670240.880 7  23723939.747
 117612700.609 8  22380945.719
 110810220.714 8  21086471.957
 113887677.328 8  21672101.614
 123178266.321 7  23440047.234
 110186415.152 8  20967761.151
 14  2 15  1  8 30.0000000  0  7G12G05G18G21G25G31G29
 129756973.075 6  24691909.015
 124745642.109 7  23738289.240
 117528568.236 8  22364936.314
 110802715.830 8  21085043.961
 113970573.612 8  21687875.932
 123231146.156 7  23450108.814
 110207790.840 8  20971828.895
 14  2 15  1  9  0.0000000  0  7G12G05G18G21G25G31G29
 129865413.972 6  24712545.431
 124821448.955 7  23752715.200
 117444675.443 8  22348971.324
 110795495.163 8  21083670.004
 114053844.702 8  21703722.182
 123284343.593 7  23460232.434
 110229361.206 8  20975933.474
 14  2 15  1  9 30.0000000  0  7G12G05G18G21G25G31G29
 129973946.403 6  24733197.832
 124897655.738 7  23767216.348
 117361020.824 8  22333052.685
 110788553.903 8  21082349.087
 114137484.727 8  21719638.512
 123337852.173 7  23470415.694
 110251123.141 8  20980074.395
 14  2 15  1 10  0.0000000  0  7G12G05G18G21G25G31G29
 130082568.772 6  24753868.930
 124974260.218 7  23781793.572
 117277607.503 8  22317179.611
 110781891.590 8  21081081.147
 114221492.057 8  21735624.913
 123391669.714 7  23480657.342
 110273077.397 8  20984252.022
 14  2 15  1 10 30.0000000  0  8G12G05G18G21G16G25G31G29
 130191282.748 7  24774557.223
 125051264.082 7  23796446.359
 117194441.675 8  22301353.315
 110775510.721 8  21079866.935
 132526977.724 6  25219044.441
 114305868.715 8  21751680.846
 123445797.319 7  23490956.691
 110295228.840 8  20988467.299
 14  2 15  1 11  0.0000000  0  8G12G05G18G21G16G25G31G29
 130300087.558 6  24795261.666
 125128666.342 7  23811175.433
 117111527.151 8  22285575.380
 110769412.292 8  21078706.502
 132423194.915 6  25199295.142
 114390613.915 8  21767807.544
 123500233.576 7  23501313.948
 110317579.042 8  20992720.823
 14  2 15  1 11 30.0000000  0  8G12G05G18G21G16G25G31G29
 130408982.614 6  24815982.093
 125206465.866 7  23825981.590
 117028867.803 8  22269846.173
 110763596.304 8  21077599.789
 132319493.930 6  25179561.969
 114475727.089 8  21784003.321
 123554977.300 7  23511731.963
 110340129.865 8  20997012.101
 14  2 15  1 12  0.0000000  0  8G12G05G18G21G16G25G31G29
 130517959.746 6  24836719.897
 125284654.129 7  23840860.162
 116946459.764 8  22254164.231
 110758055.363 8  21076545.221
 132215870.848 6  25159843.386
 114561199.824 8  21800268.751
 123610019.604 7  23522206.424
 110362876.078 8  21001340.473
 14  2 15  1 12 30.0000000  0  8G12G05G18G21G16G25G31G29
 130627013.540 6  24857472.130
 125363225.711 7  23855811.308
 116864302.055 8  22238529.838
 110752785.613 8  21075542.601
 132112324.918 6  25140138.688
 114647027.038 8  21816601.028
 123665354.537 7  23532737.703
 110385814.982 8  21005705.432
 14  2 15  1 13  0.0000000  0  8G12G05G18G21G16G25G31G29
 130736139.761 6  24878237.968
 125442175.584 7  23870835.283
 116782394.986 8  22222944.024
 110747783.677 8  21074590.836
 132008855.987 5  25120449.621
 114733204.302 8  21833000.281
 123720977.064 7  23543321.867
 110408944.964 8  21010106.952
 14  2 15  1 13 30.0000000  0  8G12G05G18G21G16G25G31G29
 130845351.217 6  24899020.084
 125521516.364 7  23885933.681
 116700756.172 8  22207408.308
 110743063.064 8  21073692.202
 131905481.560 6  25100779.526
 114819744.425 8  21849468.139
 123776899.331 7  23553962.116
 110432281.268 8  21014547.954
 14  2 15  1 14  0.0000000  0  8G12G05G18G21G16G25G31G29
 130954637.202 6  24919818.006
 125601237.381 7  23901103.574
 116619379.174 8  22191922.932
 110738614.487 8  21072845.717
 131802195.894 6  25081124.261
 114906637.047 8  21866002.901
 123833110.385 7  23564658.438
 110455816.370 8  21019026.524
 14  2 15  1 14 30.0000000  0  8G12G05G18G21G16G25G31G29
 131064002.622 6  24940629.959
 125681342.821 7  23916347.544
 116538273.033 8  22176489.105
 110734444.100 8  21072052.090
 131699007.547 6  25061488.490
 114993886.553 8  21882606.439
 123889613.895 7  23575411.329
 110479557.125 8  21023544.269
 14  2 15  1 15  0.0000000  0  8G12G05G18G21G16G25G31G29
 131173429.877 6  24961452.660
 125761814.868 7  23931660.610
 116457425.013 8  22161104.288
 110730535.094 8  21071308.409
 131595904.079 6  25041867.894
 115081475.577 8  21899274.110
 123946391.999 7  23586217.026
 110503489.082 8  21028098.456
 14  2 15  1 15 30.0000000  0  9G12G05G22G18G21G16G25G31G29
 131282931.606 6  24982290.305
 125842665.764 7  23947045.897
 129751694.894 6  24690927.007
 116376851.995 8  22145771.554
 110726901.021 8  21070616.886
 131492901.983 6  25022266.714
 115169416.631 8  21916008.887
 124003456.655 7  23597075.909
 110527627.355 8  21032691.842
 14  2 15  1 16  0.0000000  0  9G12G05G22G18G21G16G25G31G29
 131392501.056 6  25003140.888
 125923888.314 7  23962502.154
 129645924.816 6  24670799.157
 116296551.731 8  22130490.471
 110723536.637 8  21069976.496
 131389999.458 6  25002685.676
 115257703.062 8  21932808.672
 124060800.276 7  23607987.916
 110551967.995 9  21037323.432
 14  2 15  1 16 30.0000000  0  9G12G05G22G18G21G16G25G31G29
 131502129.792 6  25024001.929
 126005474.090 7  23978027.436
 129540131.167 6  24650667.547
 116216520.569 8  22115261.544
 110720434.307 8  21069386.090
 131287192.405 6  24983121.177
 115346326.454 8  21949673.516
 124118413.874 7  23618952.010
 110576505.338 8  21041992.780
 14  2 15  1 17  0.0000000  0  9G12G05G22G18G21G16G25G31G29
 131611827.515 6  25044876.415
 126087431.997 7  23993623.805
 129434327.681 6  24630534.356
 116136772.549 8  22100086.090
 110717604.231 8  21068847.668
 131184495.066 6  24963579.354
 115435296.139 8  21966604.145
 124176306.339 7  23629968.348
 110601251.629 8  21046701.938
 14  2 15  1 17 30.0000000  0  9G12G05G22G18G21G16G25G31G29
 131721581.835 6  25065760.817
 126169749.591 7  24009287.834
 129328506.660 6  24610398.170
 116057299.627 8  22084962.453
 110715035.528 8  21068358.422
 131081899.488 6  24944056.932
 115524599.741 8  21983597.786
 124234464.330 7  23641034.534
 110626196.953 8  21051448.714
 14  2 15  1 18  0.0000000  0  9G12G05G22G18G21G16G25G31G29
 131831397.748 6  25086656.962
 126252430.972 7  24025021.312
 129222677.184 6  24590258.066
 115978110.925 8  22069893.716
 110712734.236 8  21067920.826
 130979415.003 6  24924553.554
 115614241.993 8  22000656.282
 124292892.127 7  23652152.446
 110651349.342 8  21056235.262
 14  2 15  1 18 30.0000000  0  9G12G05G22G18G21G16G25G31G29
 131941266.026 6  25107565.030
 126335467.178 7  24040822.891
 129116834.990 6  24570117.813
 115899202.226 8  22054877.898
 110710692.167 8  21067532.089
 130877037.347 6  24905072.546
 115704214.156 8  22017776.932
 124351580.453 7  23663320.444
 110676702.528 8  21061059.851
 14  2 15  1 19  0.0000000  0  9G12G05G22G18G21G16G25G31G29
 132051197.463 6  25128484.241
 126418868.083 7  24056694.481
 129010994.993 6  24549976.961
 115820588.006 8  22039917.995
 110708921.020 8  21067195.546
 130774781.469 6  24885613.084
 115794526.376 8  22034963.500
 124410538.898 7  23674540.685
 110702269.399 8  21065925.021
 14  2 15  1 19 30.0000000  0  9G12G05G22G18G21G16G25G31G29
 132161171.219 6  25149411.698
 126502612.455 7  24072630.010
 128905140.787 6  24529833.171
 115742252.570 8  22025011.673
 110707401.250 8  21066905.932
 130672631.334 6  24866173.958
 115885157.857 8  22052209.991
 124469746.057 7  23685807.788
 110728032.110 8  21070827.354
 14  2 15  1 20  0.0000000  0 10G15G12G05G22G18G21G16G25G31G29
 131958499.730 6  25110866.610
 132271201.741 6  25170350.437
 126586714.718 7  24088633.569
 128799290.960 6  24509690.262
 115664214.576 8  22010160.964
 110706147.842 8  21066667.200
 130570605.815 6  24846759.662
 115976122.995 8  22069520.031
 124529215.636 7  23697125.373
 110754007.622 8  21075770.717
 14  2 15  1 20 30.0000000  0 10G15G12G05G22G18G21G16G25G31G29
 131896448.918 6  25099056.080
 132381280.230 5  25191297.368
 126671165.286 7  24104704.114
 128693441.527 6  24489546.921
 115586469.307 8  21995366.708
 110705153.550 8  21066478.371
 130468700.775 6  24827367.155
 116067412.806 8  22086891.784
 124588938.186 7  23708490.187
 110780189.911 9  21080752.705
 14  2 15  1 21  0.0000000  0 10G15G12G05G22G18G21G16G25G31G29
 131834468.185 6  25087263.984
 132491401.067 5  25212255.237
 126755958.346 7  24120839.502
 128587591.372 6  24469403.938
 115509015.973 8  21980628.218
 110704413.329 8  21066337.107
 130366914.872 6  24807997.883
 116159021.560 8  22104324.059
 124648907.419 7  23719900.187
 110806575.940 8  21085774.071
 14  2 15  1 21 30.0000000  0 10G15G12G05G22G18G21G16G25G31G29
 131772564.634 6  25075484.031
 132601566.578 5  25233221.002
 126841095.667 7  24137041.643
 128481747.188 6  24449262.524
 115431860.680 8  21965945.567
 110703930.833 8  21066245.267
 130265255.107 6  24788653.854
 116250951.317 8  22121817.789
 124709124.662 7  23731358.190
 110833170.930 8  21090834.718
 14  2 15  1 22  0.0000000  0  9G15G05G22G18G21G16G25G31G29
 131710741.960 6  25063716.628
 126926575.697 7  24153308.226
 128375912.288 6  24429122.380
 115355007.206 8  21951321.067
 110703705.919 8  21066202.677
 130163725.178 6  24769332.821
 116343200.969 8  22139372.701
 124769587.722 7  23742864.386
 110859976.317 8  21095935.738
 14  2 15  1 22 30.0000000  0  9G15G05G22G18G21G16G25G31G29
 131649004.167 6  25051968.112
 127012396.759 7  24169638.546
 128270089.625 6  24408984.471
 115278458.389 8  21936753.882
 110703738.300 8  21066208.694
 130062328.314 6  24750038.229
 116435769.021 8  22156987.341
 124830295.000 7  23754418.202
 110886993.246 9  21101076.977
 14  2 15  1 23  0.0000000  0  9G15G05G22G18G21G16G25G31G29
 131587346.878 6  25040237.868
 127098548.890 7  24186032.822
 128164274.480 6  24388848.928
 115202209.294 8  21922244.238
 110704019.064 8  21066262.156
 129961059.480 6  24730767.510
 116528645.860 8  22174661.306
 124891236.300 7  23766015.706
 110914216.230 8  21106257.273
 14  2 15  1 23 30.0000000  0  9G15G05G22G18G21G16G25G31G29
 131525773.508 6  25028520.697
 127185030.360 7  24202488.675
 128058470.037 6  24368713.411
 115126263.015 8  21907792.414
 110704548.363 8  21066362.947
 129859922.005 6  24711522.080
 116621830.011 8  22192394.315
 124952409.526 7  23777656.306
 110941645.684 8  21111476.914
 14  2 15  1 24  0.0000000  0  9G15G05G22G18G21G16G25G31G29
 131464296.744 6  25016820.545
 127271847.866 7  24219009.972
 127952687.836 6  24348584.872
 115050630.878 8  21893399.874
 110705334.761 8  21066512.564
 129758927.940 6  24692303.216
 116715328.495 8  22210185.847
 125013821.214 7  23789342.554
 110969291.466 8  21116737.811
 14  2 15  1 24 30.0000000  0  9G15G05G22G18G21G16G25G31G29
 131402916.977 6  25005140.473
 127358996.932 7  24235594.244
 127846927.952 6  24328460.524
 114975313.210 8  21879067.833
 110706374.633 8  21066710.574
 129658077.414 6  24673112.262
 116809136.769 8  22228037.277
 125075466.162 7  23801072.447
 110997151.814 8  21122039.742
 14  2 15  1 25  0.0000000  0  9G15G05G22G18G21G16G25G31G29
 131341634.475 6  24993480.234
 127446471.754 7  24252240.075
 127741189.938 6  24308339.138
 114900309.177 8  21864794.734
 110707663.817 8  21066955.799
 129557369.983 6  24653948.537
 116903249.641 8  22245946.221
 125137338.484 7  23812845.546
 111025224.844 8  21127381.561
 14  2 15  1 25 30.0000000  0  9G15G05G22G18G21G16G25G31G29
 131280451.366 6  24981837.659
 127534269.552 7  24268946.954
 127635475.593 6  24288222.278
 114825620.518 8  21850581.725
 110709200.847 8  21067248.323
 129456807.911 6  24634810.924
 116997664.358 8  22263913.218
 125199435.236 7  23824661.584
 111053510.724 8  21132764.464
 14  2 15  1 26  0.0000000  0  9G15G05G22G18G21G16G25G31G29
 131219364.421 6  24970212.455
 127622381.091 6  24285713.872
 127529781.093 6  24268107.465
 114751243.034 8  21836428.238
 110710977.889 8  21067586.482
 129356387.081 6  24615701.940
 117092372.186 8  22281935.206
 125261746.830 7  23836520.137
 111082003.603 8  21138186.279
 14  2 15  1 26 30.0000000  0  9G15G05G22G18G21G16G25G31G29
 131158383.249 6  24958607.696
 127710810.813 7  24302541.946
 127424115.529 6  24248000.886
 114677185.765 8  21822335.256
 110713000.877 8  21067971.578
 129256116.842 6  24596620.478
 117187377.691 8  22300013.851
 125324277.205 7  23848419.097
 111110710.702 8  21143649.123
 14  2 15  1 27  0.0000000  0  9G15G05G22G18G21G16G25G31G29
 131097512.448 6  24947024.582
 127799558.075 7  24319430.538
 127318483.240 6  24227900.082
 114603452.591 8  21808304.623
 110715270.873 8  21068403.757
 129156001.596 6  24577569.612
 117282680.318 7  22318149.161
 125387025.500 7  23860361.587
 111139634.379 8  21149153.148
 14  2 15  1 27 30.0000000  0 10G15G05G22G18G21G06G16G25G31G29
 131036761.859 5  24935461.206
 127888626.958 7  24336379.701
 127212893.100 6  24207807.345
 114530052.829 8  21794336.768
 110717793.093 8  21068883.776
 131454326.827 6  25014925.574
 129056050.767 7  24558549.607
 117378284.475 7  22336342.314
 125449995.470 7  23872343.825
 111168782.457 8  21154700.031
 14  2 15  1 28  0.0000000  0 10G15G05G22G18G21G06G16G25G31G29
 130976115.053 6  24923925.630
 127977995.379 6  24353385.686
 127107328.099 6  24187719.474
 114456969.020 8  21780429.504
 110720547.458 8  21069407.877
 131372268.352 6  24999310.552
 128956247.479 6  24539557.610
 117474168.364 8  22354588.785
 125513164.540 7  23884364.527
 111198135.857 8  21160285.626
 14  2 15  1 28 30.0000000  0 10G15G05G22G18G21G06G16G25G31G29
 130915584.921 6  24912404.517
 128067670.589 6  24370449.994
 127001800.524 7  24167637.107
 114384213.309 8  21766584.634
 110723542.684 8  21069977.804
 131290162.674 6  24983686.941
 128856604.045 6  24520596.435
 117570339.535 8  22372889.365
 125576540.025 7  23896423.735
 111227705.011 8  21165912.546
 14  2 15  1 29  0.0000000  0 10G15G05G22G18G21G06G16G25G31G29
 130855182.087 6  24900911.299
 128157657.502 7  24387574.889
 126896320.301 7  24147565.964
 114311795.120 8  21752804.179
 110726784.957 8  21070594.801
 131208017.930 6  24968055.966
 128757130.406 6  24501666.753
 117666803.225 7  22391245.597
 125640126.489 7  23908523.088
 111257498.247 8  21171581.885
 14  2 15  1 29 30.0000000  0 10G15G05G22G18G21G06G16G25G31G29
 130794893.158 6  24889436.721
 128247937.485 6  24404754.076
 126790874.204 7  24127500.595
 114239700.675 8  21739084.869
 110730256.578 8  21071255.210
 131125818.462 6  24952414.162
 128657813.619 6  24482767.595
 117763541.107 8  22409654.683
 125703905.049 7  23920660.319
 111287500.007 8  21177291.144
 14  2 15  1 30  0.0000000  0 10G15G05G22G18G21G06G16G25G31G29
 130734736.056 6  24877991.651
 128338522.945 7  24421991.962
 126685479.436 6  24107443.700
 114167947.252 8  21725431.009
 110733972.365 8  21071962.496
 131043579.441 6  24936763.347
 128558670.834 6  24463901.374
 117860565.602 7  22428117.631
 125767887.569 7  23932836.442
 111317725.837 8  21183042.910
 14  2 15  1 30 30.0000000  0 10G15G05G22G18G21G06G16G25G31G29
 130674707.338 6  24866565.275
 128429405.035 7  24439286.923
 126580131.427 7  24087397.058
 114096530.347 8  21711840.567
 110737924.454 8  21072714.404
 130961295.180 6  24921104.596
 128459698.134 7  24445067.290
 117957867.989 7  22446633.171
 125832065.334 7  23945049.534
 111348169.970 8  21188836.167
 14  2 15  1 31  0.0000000  0 10G15G05G22G18G21G06G16G25G31G29
 130614815.132 7  24855174.299
 128520586.583 7  24456638.422
 126474838.482 7  24067360.436
 114025457.148 8  21698315.519
 110742117.186 8  21073512.362
 130878971.340 5  24905438.446
 128360903.725 7  24426267.785
 118055451.287 8  22465203.359
 125896440.031 7  23957300.218
 111378838.117 8  21194672.126
 14  2 15  1 31 30.0000000  0 10G15G05G22G18G21G06G16G25G31G29
 130555053.223 6  24843799.320
 128612055.423 6  24474044.223
 126369593.543 7  24047332.382
 113954721.557 8  21684854.856
 110746540.151 8  21074353.760
 130796599.379 5  24889763.023
 128262280.767 6  24407499.829
 118153303.819 8  22483824.033
 125960999.728 7  23969585.126
 111409721.915 8  21200549.255
 14  2 15  1 32  0.0000000  0 10G15G05G22G18G21G06G16G25G31G29
 130495427.622 6  24832449.635
 128703811.732 6  24491505.229
 126264401.919 7  24027316.551
 113884327.761 8  21671459.683
 110751194.780 8  21075239.682
 130714182.332 5  24874081.093
 128163834.649 6  24388766.919
 118251425.939 8  22502496.182
 126025744.298 7  23981903.885
 111440824.976 9  21206467.919
 14  2 15  1 32 30.0000000  0 10G15G05G22G18G21G06G16G25G31G29
 130435948.377 6  24821130.339
 128795860.565 6  24509021.904
 126159273.161 7  24007310.892
 113814284.989 8  21658131.027
 110756087.415 8  21076170.641
 130631727.975 6  24858392.859
 128065575.323 6  24370068.445
 118349822.597 8  22521219.921
 126090678.277 6  23994260.136
 111472154.961 8  21212429.498
 14  2 15  1 33  0.0000000  0 10G15G05G22G18G21G06G16G25G31G29
 130376609.925 6  24809841.926
 128888190.345 7  24526591.489
 126054201.195 7  23987315.474
 113744587.016 8  21644867.821
 110761208.410 8  21077144.990
 130549228.327 6  24842691.840
 127967496.595 7  24351404.990
 118448482.777 8  22539994.091
 126155789.963 7  24006650.992
 111503703.724 8  21218433.299
 14  2 15  1 33 30.0000000  0 10G15G05G22G18G21G06G16G25G31G29
 130317420.284 6  24798577.046
 128980803.415 7  24544215.002
 125949193.371 7  23967333.354
 113675241.105 8  21631672.034
 110766561.774 8  21078163.666
 130466688.950 6  24826985.644
 127869606.453 6  24332776.441
 118547409.088 7  22558819.620
 126221081.587 6  24019075.179
 111535477.146 8  21224479.751
 14  2 15  1 34  0.0000000  0 10G15G05G22G18G21G06G16G25G31G29
 130258380.565 6  24787343.198
 129073696.007 7  24561891.286
 125844250.661 7  23947364.155
 113606247.621 8  21618542.679
 110772145.150 8  21079226.291
 130384108.923 6  24811270.838
 127771905.669 6  24314184.492
 118646597.711 8  22577694.981
 126286548.830 7  24031534.240
 111567474.384 8  21230568.576
 14  2 15  1 34 30.0000000  0 10G15G05G22G18G21G06G16G25G31G29
 130199491.023 6  24776138.166
 129166862.475 7  24579620.027
 125739372.469 7  23927405.019
 113537605.663 8  21605480.529
 110777954.076 8  21080331.909
 130301485.739 6  24795547.427
 127674394.260 7  24295629.727
 118746043.200 8  22596618.254
 126352185.721 7  24044024.541
 111599692.867 8  21236699.397
 14  2 15  1 35  0.0000000  0 10G15G05G22G18G21G06G16G25G31G29
 130140752.277 6  24764959.076
 129260297.837 6  24597400.141
 125634559.036 7  23907460.352
 113469315.031 8  21592485.285
 110783985.263 8  21081479.436
 130218817.679 6  24779814.728
 127577072.428 7  24277109.337
 118845740.873 8  22615589.753
 126417987.112 7  24056546.577
 111632131.110 8  21242872.439
 14  2 15  1 35 30.0000000  0 10G15G05G22G18G21G06G16G25G31G29
