     2.11           OBSERVATION DATA    M (MIXED)           RINEX VERSION / TYPE
teqc  2015Jun23                         20230319 09:29:13UTCPGM / RUN BY / DATE
GGN                 JPL                                     OBSERVER / AGENCY
BSHM                                                        MARKER NAME
20705M001                                                   MARKER NUMBER
02330               JAVAD TRE_3 DELTA   3.7.6               REC # / TYPE / VERS
  4395951.1833  3080707.2289  3433498.2609                  APPROX POSITION XYZ
4811A47089          TRM59800.00     SCIS                    ANT # / TYPE
        0.0000        0.0000        0.0000                  ANTENNA: DELTA H/E/N
     1     1                                                WAVELENGTH FACT L1/2
     2    L1    C1                                          # / TYPES OF OBSERV
    30.0000                                                 INTERVAL
    18                                                      LEAP SECONDS
OSX ker:10.10.3|Core i5|gcc 4.2 -m64|OSX ker:10.10+|=+      COMMENT
teqc  2015Jun23                         20230319 09:29:13UTCCOMMENT
JPS2RIN v.2.0.168   gpsops              20190902 010109 UTC COMMENT
L1 is phase on P1, L2 is phase on P2 (GPS & GLONASS)        COMMENT
Phase shifts:                                               COMMENT
G L1  -0.25000  32 G01 G02 G03 G04 G05 G06 G07 G08 G09 G10  COMMENT
                   G11 G12 G13 G14 G15 G16 G17 G18 G19 G20  COMMENT
                   G21 G22 G23 G24 G25 G26 G27 G28 G29 G30  COMMENT
                   G31 G32                                  COMMENT
G L2   0.00000  32 G01 G02 G03 G04 G05 G06 G07 G08 G09 G10  COMMENT
                   G11 G12 G13 G14 G15 G16 G17 G18 G19 G20  COMMENT
                   G21 G22 G23 G24 G25 G26 G27 G28 G29 G30  COMMENT
                   G31 G32                                  COMMENT
G L5   0.25000  12 G01 G03 G06 G08 G09 G10 G24 G25 G26 G27  COMMENT
                   G30 G32                                  COMMENT
R L1  -0.25000  22 R01 R02 R03 R05 R06 R07 R08 R09 R11 R12  COMMENT
                   R13 R14 R15 R16 R17 R18 R19 R20 R21 R22  COMMENT
                   R23 R24                                  COMMENT
R L2   0.00000  22 R01 R02 R03 R05 R06 R07 R08 R09 R11 R12  COMMENT
                   R13 R14 R15 R16 R17 R18 R19 R20 R21 R22  COMMENT
                   R23 R24                                  COMMENT
E L1   0.50000  25 E01 E02 E03 E04 E05 E07 E08 E09 E11 E12  COMMENT
                   E13 E14 E15 E18 E19 E20 E21 E24 E25 E26  COMMENT
                   E27 E30 E31 E33 E36                      COMMENT
E L5   0.25000  24 E01 E02 E03 E04 E05 E07 E08 E09 E11 E12  COMMENT
                   E13 E14 E15 E18 E19 E21 E24 E25 E26 E27  COMMENT
                   E30 E31 E33 E36                          COMMENT
This data is provided as a public service by NASA/JPL.      COMMENT
No warranty is expressed or implied regarding suitability   COMMENT
for use.  For further information, contact:                 COMMENT
Dave Stowers, NASA/JPL m/s 238-600                          COMMENT
4800 Oak Grove Drive, Pasadena CA 91109 USA                 COMMENT
teqc edited: all GLONASS satellites excluded                COMMENT
teqc edited: all Galileo satellites excluded                COMMENT
  2019     9     1     0     0    0.0000000     GPS         TIME OF FIRST OBS
                                                            END OF HEADER
 19  9  1  0  0  0.0000000  0  9G06G12G13G15G17G19G24G28G30
 128492644.716 4  24451336.052
 123618204.141 4  23523761.862
 109700680.365 7  20875344.386
 112731919.941 6  21452170.477
 110625337.532 7  21051300.917
 107702214.347 7  20495049.724
 119331823.736 5  22708091.415
 121639163.026 5  23147162.034
 125799667.117 4  23938875.284
 19  9  1  0  0 30.0000000  0  9G06G12G13G15G17G19G24G28G30
 128411289.060 4  24435855.273
 123543241.536 4  23509496.648
 109759585.136 6  20886553.633
 112739968.061 6  21453701.960
 110653190.415 7  21056601.263
 107675699.886 7  20490003.914
 119250265.020 5  22692571.218
 121708257.748 5  23160309.743
 125879160.896 4  23954003.331
 19  9  1  0  1  0.0000000  0  9G06G12G13G15G17G19G24G28G30
 128329933.518 4  24420374.237
 123468468.699 4  23495267.927
 109818991.826 6  20897858.184
 112748580.409 6  21455340.753
 110681567.59017  21062001.130
 107649810.57017  20485077.523
 119168804.831 5  22677069.803
 121777330.032 4  23173453.618
 125958845.891 4  23969166.330
 19  9  1  0  1 30.0000000  0  9G06G12G13G15G17G19G24G28G30
 128248580.511 4  24404893.734
 123393884.806 4  23481075.011
 109878898.329 6  20909258.027
 112757755.778 6  21457086.837
 110710467.00817  21067500.586
 107624545.69217  20480269.498
 119087443.415 5  22661587.503
 121846378.052 4  23186593.050
 126038721.124 4  23984366.123
 19  9  1  0  2  0.0000000  0  9G06G12G13G15G17G19G24G28G30
 128167234.158 4  24389413.599
 123319490.704 4  23466917.705
 109939303.945 7  20920752.900
 112767494.719 6  21458940.056
 110739888.428 7  21073099.367
 107599907.102 7  20475581.013
 119006184.095 5  22646124.150
 121915402.270 4  23199727.956
 126118787.322 4  23999602.363
 19  9  1  0  2 30.0000000  0  9G06G12G13G15G17G19G24G28G30
 128085895.575 4  24373934.518
 123245285.135 4  23452797.319
 110000204.161 6  20932341.818
 112777794.756 6  21460900.335
 110769828.47517  21078796.796
 107575893.76717  20471011.604
 118925026.420 5  22630679.733
 121984399.905 4  23212857.302
 126199042.149 4  24014874.351
 19  9  1  0  3  0.0000000  0  9G06G12G13G15G17G19G24G28G30
 128004568.623 4  24358458.702
 123171268.794 4  23438712.526
 110061598.764 6  20944024.958
 112788655.985 6  21462966.954
 110800287.163 7  21084592.698
 107552507.043 7  20466561.244
 118843972.456 5  22615255.719
 122053371.490 4  23225982.647
 126279486.035 4  24030182.645
 19  9  1  0  3 30.0000000  0  9G06G12G13G15G17G19G24G28G30
 127923256.758 4  24342985.236
 123097442.657 4  23424664.092
 110123485.901 6  20955801.742
 112800078.048 6  21465140.337
 110831262.884 7  21090487.292
 107529747.997 7  20462230.310
 118763024.737 5  22599852.255
 122122316.363 4  23239102.138
 126360118.952 4  24045525.768
 19  9  1  0  4  0.0000000  0  9G06G12G13G15G17G19G24G28G30
 127841963.072 4  24327516.478
 123023806.449 4  23410651.412
 110185863.507 6  20967671.818
 112812060.440 6  21467420.801
 110862754.391 7  21096479.733
 107507617.743 7  20458018.918
 118682184.368 5  22584468.479
 122191233.834 4  23252217.172
 126440940.647 4  24060905.975
 19  9  1  0  4 30.0000000  0  9G06G12G13G15G17G19G24G28G30
 127760689.302 4  24312050.288
 122950359.232 4  23396675.209
 110248728.431 6  20979634.636
 112824601.327 6  21469807.483
 110894759.096 7  21102570.048
 107486115.699 7  20453927.248
 118601452.181 5  22569105.898
 122260122.554 4  23265325.381
 126521949.368 4  24076321.033
 19  9  1  0  5  0.0000000  0  9G06G12G13G15G17G19G24G28G30
 127679438.884 4  24296589.386
 122877101.595 4  23382734.549
 110312078.894 6  20991689.536
 112837700.399 6  21472300.007
 110927276.30317  21108757.867
 107465243.10117  20449955.510
 118520829.866 6  22553763.968
 122328981.975 4  23278429.558
 126603145.023 4  24091772.886
 19  9  1  0  5 30.0000000  0  9G06G12G13G15G17G19G24G28G30
 127598215.927 4  24281132.478
 122804034.727 4  23368829.785
 110375914.409 6  21003837.021
 112851357.736 6  21474898.942
 110960305.054 7  21115043.156
 107445001.466 7  20446103.570
 118440320.588 5  22538444.246
 122397812.680 4  23291527.591
 126684528.312 4  24107258.917
 19  9  1  0  6  0.0000000  0  9G06G12G13G15G17G19G24G28G30
 127517022.361 4  24265681.040
 122731157.346 4  23354961.530
 110440231.513 6  21016076.245
 112865571.440 6  21477603.373
 110993842.836 7  21121425.132
 107425389.778 7  20442371.654
 118359924.259 6  22523145.005
 122466612.400 4  23304619.703
 126766097.568 4  24122781.417
 19  9  1  0  6 30.0000000  0  9G06G12G13G15G17G19G24G28G30
 127435861.210 4  24250237.906
 122658469.537 4  23341130.507
 110505028.082 6  21028406.747
 112880340.784 6  21480414.156
 111027888.27617  21127903.915
 107406408.89917  20438759.709
 118279643.197 6  22507868.264
 122535380.829 4  23317706.217
 126847852.345 4  24138338.731
 19  9  1  0  7  0.0000000  0  9G06G12G13G15G17G19G24G28G30
 127354736.447 4  24234800.113
 122585972.543 5  23327334.770
 110570303.171 6  21040827.891
 112895665.737 6  21483330.690
 111062440.574 7  21134478.959
 107388060.263 7  20435267.920
 118199478.722 6  22492612.910
 122604118.327 4  23330786.196
 126929793.064 4  24153931.559
 19  9  1  0  7 30.0000000  0  9G06G12G13G15G17G19G24G28G30
 127273651.067 4  24219369.750
 122513666.003 4  23313574.846
 110636054.506 6  21053340.152
 112911545.271 6  21486352.155
 111097498.09117  21141150.209
 107370344.20617  20431896.890
 118119433.354 5  22477380.890
 122672823.881 4  23343860.145
 127011919.261 4  24169559.187
 19  9  1  0  8  0.0000000  0  9G06G12G13G15G17G19G24G28G30
 127192607.089 4  24203948.255
 122441549.522 4  23299851.410
 110702279.101 6  21065942.034
 112927977.652 6  21489479.290
 111133058.048 7  21147916.782
 107353260.391 7  20428645.762
 118039507.409 6  22462171.291
 122741495.951 4  23356927.849
 127094229.333 4  24185223.076
 19  9  1  0  8 30.0000000  0  9G06G12G13G15G17G19G24G28G30
 127111608.048 4  24188534.727
 122369623.435 4  23286164.238
 110768975.052 6  21078634.078
 112944962.493 6  21492711.029
 111169119.66617  21154779.304
 107336809.54617  20425515.347
 117959703.327 6  22446985.082
 122810134.313 4  23369989.196
 127176723.213 4  24200920.689
 19  9  1  0  9  0.0000000  0  9G06G12G13G15G17G19G24G28G30
 127030657.313 4  24173129.956
 122297887.508 5  23272513.817
 110836140.527 6  21091415.164
 112962498.784 6  21496048.221
 111205681.462 7  21161736.760
 107320992.256 7  20422505.253
 117880022.770 6  22431822.099
 122878738.713 4  23383044.866
 127259400.759 4  24216653.072
 19  9  1  0  9 30.0000000  0  9G06G12G13G15G17G19G24G28G30
 126949757.657 4  24157735.748
 122226341.860 5  23258898.720
 110903773.300 6  21104285.334
 112980585.701 6  21499490.217
 111242741.19717  21168788.873
 107305808.75517  20419616.054
 117800467.038 6  22416683.521
 122947308.460 4  23396093.220
 127342261.171 4  24232421.656
 19  9  1  0 10  0.0000000  0  9G06G12G13G15G17G19G24G28G30
 126868912.190 4  24142350.554
 122154986.455 5  23245319.920
 110971871.105 6  21117243.930
 112999221.964 6  21503036.258
 111280297.888 7  21175935.562
 107291259.277 7  20416847.260
 117721037.718 6  22401568.987
 123015842.710 4  23409134.388
 127425303.926 4  24248223.658
 19  9  1  0 10 30.0000000  0  9G06G12G13G15G17G19G24G28G30
 126788123.133 4  24126977.005
 122083821.310 4  23231777.490
 111040430.803 6  21130290.178
 113018405.958 6  21506687.065
 111318348.25717  21183176.593
 107277343.20617  20414199.117
 117641736.143 6  22386477.986
 123084340.345 4  23422169.619
 127508527.620 4  24264059.977
 19  9  1  0 11  0.0000000  0  9G06G12G13G15G17G19G24G28G30
 126707395.443 4  24111615.137
 122012847.220 5  23218272.188
 111109452.211 6  21143424.781
 113038138.098 6  21510441.913
 111356893.415 7  21190511.466
 107264063.057 7  20411672.030
 117562566.032 6  22371412.360
 123152802.357 4  23435197.186
 127591933.610 4  24279931.947
 19  9  1  0 11 30.0000000  0  9G06G12G13G15G17G19G24G28G30
 126626731.090 4  24096265.250
 121942063.499 5  23204803.109
 111178931.826 6  21156646.283
 113058416.538 6  21514300.759
 111395929.772 7  21197939.677
 107251417.503 7  20409265.732
 117483527.379 6  22356371.845
 123221227.122 4  23448217.515
 127675520.169 3  24295838.747
 19  9  1  0 12  0.0000000  0  9G06G12G13G15G17G19G24G28G30
 126546132.370 4  24080928.404
 121871469.779 5  23191368.823
 111248866.879 6  21169954.657
 113079239.449 6  21518263.233
 111435454.928 7  21205461.045
 107239406.532 7  20406980.325
 117404621.485 6  22341356.591
 123289613.538 4  23461231.412
 127759286.050 3  24311778.087
 19  9  1  0 12 30.0000000  0  9G06G12G13G15G17G19G24G28G30
 126465602.879 4  24065603.530
 121801066.242 4  23177971.113
 111319255.375 6  21183349.065
 113100606.193 6  21522329.108
 111475468.194 7  21213075.327
 107228030.594 7  20404815.317
 117325850.489 6  22326367.126
 123357961.685 4  23474237.944
 127843231.079 3  24327753.458
 19  9  1  0 13  0.0000000  0  9G06G12G13G15G17G19G24G28G30
 126385147.412 4  24050292.865
 121730854.293 4  23164610.096
 111390096.795 6  21196829.716
 113122517.307 6  21526498.774
 111515969.14617  21220782.692
 107217291.51517  20402771.702
 117247217.706 6  22311404.263
 123426272.339 4  23487237.078
 127927356.380 4  24343761.397
 19  9  1  0 13 30.0000000  0  9G06G12G13G15G17G19G24G28G30
 126304767.733 4  24034998.549
 121660832.369 5  23151285.800
 111461387.332 6  21210395.504
 113144970.107 6  21530771.514
 111556954.620 7  21228581.639
 107207187.871 7  20400849.026
 117168723.263 6  22296466.526
 123494543.698 4  23500228.995
 128011660.149 4  24359803.837
 19  9  1  0 14  0.0000000  0  9G06G12G13G15G17G19G24G28G30
 126224466.197 4  24019716.383
 121591000.529 5  23137997.504
 111533124.190 6  21224046.676
 113167963.028 6  21535146.917
 111598421.962 7  21236472.860
 107197719.288 7  20399047.314
 117090368.201 6  22281556.175
 123562774.731 4  23513212.845
 128096141.048 4  24375880.132
 19  9  1  0 14 30.0000000  0  9G06G12G13G15G17G19G24G28G30
 126144246.137 4  24004451.374
 121521359.001 5  23124745.223
 111605305.246 6  21237782.575
 113191494.360 6  21539624.705
 111640369.564 7  21244454.871
 107188886.112 7  20397366.562
 117012155.232 6  22266672.673
 123630965.019 4  23526188.598
 128180798.574 4  24391990.674
 19  9  1  0 15  0.0000000  0  9G06G12G13G15G17G19G24G28G30
 126064111.444 4  23989202.328
 121451908.174 5  23111528.530
 111677928.780 6  21251602.222
 113215564.305 6  21544205.115
 111682796.60917  21252528.637
 107180688.87317  20395806.524
 116934086.576 6  22251816.566
 123699114.702 4  23539157.353
 128265632.936 4  24408132.870
 19  9  1  0 15 30.0000000  0  9G06G12G13G15G17G19G24G28G30
 125984065.642 4  23973970.315
 121382648.070 5  23098349.341
 111750992.989 6  21265505.695
 113240172.137 6  21548887.824
 111725701.665 7  21260693.107
 107173128.057 7  20394367.915
 116856163.959 6  22236988.853
 123767223.812 4  23552118.059
 128350644.061 3  24424309.730
 19  9  1  0 16  0.0000000  0  8G06G12G13G15G17G19G24G28
 125904111.022 4  23958755.954
 121313578.169 5  23085205.716
 111824494.528 6  21279492.662
 113265315.761 6  21553672.330
 111769081.950 7  21268948.260
 107166203.083 7  20393050.052
 116778388.135 6  22222187.911
 123835290.839 4  23565070.408
 19  9  1  0 16 30.0000000  0  9G06G12G13G15G17G19G24G28G30
 125824251.094 4  23943558.953
 121244699.135 5  23072098.009
 111898431.578 6  21293562.513
 113290994.029 6  21558558.937
 111812936.33617  21277293.575
 107159914.07117  20391853.042
 116700762.006 6  22207416.618
 123903315.841 4  23578015.453
                  24456763.566
 19  9  1  0 17  0.0000000  0  9G06G12G13G15G17G19G24G28G30
 125744488.734 4  23928380.161
 121176010.563 5  23059027.500
 111972801.510 6  21307714.310
 113317205.337 6  21563546.869
 111857262.018 7  21285728.284
 107154260.809 7  20390777.560
 116623286.784 6  22192673.433
 123971298.406 4  23590951.956
 128606693.155 4  24473041.240
 19  9  1  0 17 30.0000000  0  9G06G12G13G15G17G19G24G28G30
 125664826.697 4  23913220.890
 121107511.586 5  23045992.745
 112047601.541 6  21321948.540
 113343947.984 6  21568635.839
 111902057.349 7  21294252.509
 107149242.706 7  20389822.471
 116545963.681 6  22177959.471
 124039237.018 4  23603880.226
 128692401.622 4  24489351.607
 19  9  1  0 18  0.0000000  0  9G06G12G13G15G17G19G24G28G30
 125585267.371 4  23898081.327
 121039201.966 5  23032993.341
 112122828.260 6  21336263.658
 113371219.871 6  21573825.573
 111947319.671 7  21302865.865
 107144859.012 7  20388988.330
 116468794.216 6  22163274.398
 124107131.313 4  23616799.949
 128778289.881 3  24505693.867
 19  9  1  0 18 30.0000000  0  9G06G12G13G15G17G19G24G28G30
 125505816.336 4  23882962.322
 120971083.410 5  23020030.496
 112198481.805 6  21350660.044
 113399021.838 6  21579115.974
 111993049.140 6  21311567.789
 107141111.935 7  20388275.156
 116391782.413 6  22148619.255
 124174982.835 4  23629712.070
 128864343.546 4  24522069.659
 19  9  1  0 19  0.0000000  0  9G06G12G13G15G17G19G24G28G30
 125426475.043 5  23867863.888
 120903154.821 5  23007104.037
 112274558.182 6  21365137.100
 113427351.029 6  21584506.642
 112039242.262 7  21320357.943
 107137999.592 7  20387682.913
 116314927.866 6  22133994.174
 124242789.599 4  23642614.728
 128950568.337 3  24538476.127
 19  9  1  0 19 30.0000000  0  9G06G12G13G15G17G19G24G28G30
 125347246.820 4  23852788.112
 120835416.311 5  22994213.986
 112351055.311 6  21379693.917
 113456206.523 6  21589997.776
 112085897.37716  21329236.035
 107135521.80917  20387211.477
 116238233.234 6  22119399.994
 124310551.184 4  23655509.018
 129036963.877 4  24554916.608
 19  9  1  0 20  0.0000000  0  9G06G12G13G15G17G19G24G28G30
 125268134.917 5  23837733.767
 120767867.789 5  22981360.440
 112427970.495 6  21394330.327
 113485586.749 6  21595588.656
 112133012.565 7  21338202.103
 107133678.730 7  20386860.774
 116161700.313 6  22104836.293
 124378267.275 4  23668395.730
 129123529.494 4  24571390.543
 19  9  1  0 20 30.0000000  0  9G06G12G13G15G17G19G24G28G30
 125189142.078 5  23822701.416
 120700508.482 5  22968542.089
 112505300.820 6  21409045.782
 113515489.769 6  21601278.718
 112180585.24716  21347254.523
 107132469.86517  20386630.729
 116085330.368 6  22090303.639
 124445937.352 4  23681272.815
 129210264.126 4  24587895.781
 19  9  1  0 21  0.0000000  0  9G06G12G13G15G17G19G24G28G30
 125110272.590 5  23807693.072
 120633339.734 5  22955759.655
 112583044.887 6  21423840.108
 113545915.290 6  21607068.695
 112228614.862 7  21356394.312
 107131895.496 7  20386521.348
 116009126.249 6  22075802.085
 124513562.227 4  23694141.958
 129297168.237 4  24604432.921
 19  9  1  0 21 30.0000000  0  9G06G12G13G15G17G19G24G28G30
 125031529.490 4  23792708.759
 120566361.590 5  22943014.744
 112661200.321 6  21438712.414
 113576861.736 6  21612957.609
 112277099.418 7  21365620.647
 107131955.736 7  20386532.843
 115933089.613 6  22061333.131
 124581141.035 4  23707000.935
 129384241.020 3  24621003.212
 19  9  1  0 22  0.0000000  0  9G06G12G13G15G17G19G24G28G30
 124952914.665 4  23777748.558
 120499572.422 5  22930305.123
 112739763.247 6  21453662.506
 113608326.434 6  21618945.153
 112326035.472 7  21374932.981
 107132648.522 7  20386664.820
 115857221.598 6  22046895.810
 124648672.316 4  23719852.160
 129471480.548 3  24637602.317
 19  9  1  0 22 30.0000000  0  9G06G12G13G15G17G19G24G28G30
 124874432.205 4  23762814.017
 120432973.110 5  22917631.467
 112818732.173 6  21468689.704
 113640308.611 6  21625031.111
 112375422.110 7  21384330.842
 107133974.839 7  20386917.029
 115781524.430 6  22032491.029
 124716156.573 4  23732694.002
 129558886.99714  24654236.491
 19  9  1  0 23  0.0000000  0  9G06G12G13G15G17G19G24G28G30
 124796084.653 4  23747904.876
 120366562.685 5  22904994.433
 112898103.857 6  21483793.599
 113672806.170 6  21631215.330
 112425256.35217  21393813.986
 107135933.51917  20387289.567
 115705999.612 6  22018119.499
 124783593.122 4  23745526.512
 129646459.010 4  24670901.539
 19  9  1  0 23 30.0000000  0  9G06G12G13G15G17G19G24G28G30
 124717875.196 4  23733021.952
 120300341.236 5  22892392.848
 112977875.797 6  21498973.758
 113705817.230 6  21637496.978
 112475536.371 7  21403382.053
 107138524.012 7  20387782.535
 115630648.782 6  22003780.576
 124850981.437 4  23758349.967
 129734195.94513  24687596.782
 19  9  1  0 24  0.0000000  0  9G06G12G13G15G17G19G24G28G30
 124639808.344 5  23718166.384
 120234310.552 5  22879828.119
 113058046.643 6  21514229.911
 113739341.928 6  21643876.306
 112526261.60417  21413034.921
 107141747.07917  20388396.130
 115555475.575 6  21989475.570
 124918322.619 4  23771164.441
 129822098.451 4  24704325.206
 19  9  1  0 24 30.0000000  0  9G06G12G13G15G17G19G24G28G30
 124561885.147 5  23703338.391
 120168467.681 5  22867298.310
 113138611.633 6  21529561.187
 113773376.236 6  21650352.882
 112577427.808 6  21422771.353
 107145600.438 7  20389129.486
 115480479.710 6  21975204.214
 124985614.123 4  23783970.778
 129910163.529 4  24721082.446
 19  9  1  0 25  0.0000000  0  9G06G12G13G15G17G19G24G28G30
 124484109.505 5  23688538.694
 120102813.663 5  22854804.580
 113219569.209 6  21544966.302
 113807919.507 6  21656926.384
 112629033.49617  21432591.684
 107150084.02017  20389982.389
 115405663.637 6  21960967.285
 125052856.411 4  23796766.001
 129998391.282 3  24737871.526
 19  9  1  0 25 30.0000000  0  9G06G12G13G15G17G19G24G28G30
 124406485.369 5  23673766.920
 120037349.134 5  22842346.682
 113300917.627 6  21560446.566
 113842970.980 6  21663596.424
 112681077.366 6  21442495.252
 107155198.135 7  20390955.606
 115331029.861 6  21946764.872
 125120049.795 4  23809552.117
 130086781.794 3  24754692.856
 19  9  1  0 26  0.0000000  0  9G06G12G13G15G17G19G24G28G30
 124329015.227 5  23659024.258
 119972073.125 5  22829925.662
 113382653.245 6  21576000.180
 113878527.950 6  21670362.891
 112733556.65517  21452481.776
 107160941.61517  20392048.519
 115256579.642 6  21932597.217
 125187193.370 4  23822329.200
 130175333.535 3  24771543.519
 19  9  1  0 26 30.0000000  0  9G06G12G13G15G17G19G24G28G30
 124251703.305 5  23644313.013
 119906986.631 5  22817539.693
 113464774.697 6  21591627.647
 113914589.735 6  21677225.249
 112786470.355 6  21462550.497
 107167314.855 7  20393261.535
 115182316.411 6  21918465.621
 125254288.112 4  23835097.106
 130264046.848 3  24788423.978
 19  9  1  0 27  0.0000000  0  9G06G12G13G15G17G19G24G28G30
 124174550.962 4  23629630.475
 119842087.659 5  22805189.552
 113547277.476 6  21607327.453
 113951152.770 6  21684182.592
 112839814.70017  21472701.893
 107174315.43217  20394593.853
 115108239.416 6  21904369.007
 125321331.656 4  23847855.234
 130352919.111 3  24805335.362
 19  9  1  0 27 30.0000000  0  9G06G12G13G15G17G19G24G28G30
 124097563.703 5  23614981.264
 119777378.421 5  22792876.503
 113630161.315 6  21623099.699
 113988218.179 6  21691236.191
 112893589.744 6  21482934.656
 107181945.030 7  20396045.463
 115034354.104 6  21890309.287
 125388326.101 4  23860603.456
 130441951.964 3  24822276.786
 19  9  1  0 28  0.0000000  0  9G06G12G13G15G17G19G24G28G30
 124020741.572 5  23600362.241
 119712856.298 5  22780598.142
 113713420.337 6  21638943.158
 114025780.467 6  21698384.054
 112947790.18816  21493248.969
 107190199.93617  20397616.243
 114960658.223 6  21876285.443
 125455268.286 4  23873341.811
 130531141.463 3  24839250.497
 19  9  1  0 28 30.0000000  0  9G06G12G13G15G17G19G24G28G30
 123944090.351 5  23585775.527
 119648523.028 5  22768355.949
 113797054.670 6  21654858.303
 114063840.509 6  21705626.562
 113002416.67817  21503643.894
 107199081.88117  20399306.565
 114887156.709 6  21862298.727
 125522160.395 4  23886071.829
 130620489.406 3  24856253.430
 19  9  1  0 29  0.0000000  0  9G06G12G13G15G17G19G24G28G30
 123867612.176 5  23571222.682
 119584378.009 5  22756149.631
 113881060.140 6  21670844.121
 114102396.285 6  21712963.490
 113057465.866 6  21514119.470
 107208589.207 7  20401115.532
 114813850.306 6  21848348.953
 125589001.097 4  23898790.666
 130709993.99213  24873285.659
 19  9  1  0 29 30.0000000  0  8G06G12G13G15G17G19G24G28
 123791310.161 5  23556702.447
 119520420.520 5  22743978.583
 113965434.82916  21686900.110
 114141445.251 6  21720394.206
 113112935.389 6  21524675.113
 107218721.01517  20403043.591
 114740740.894 6  21834436.870
 125655790.258 4  23911500.627
 19  9  1  0 30  0.0000000  0  8G06G12G13G15G17G19G24G28
 123715188.423 5  23542216.897
 119456651.69915  22731843.878
 114050176.78416  21703025.739
 114180986.835 6  21727918.852
 113168824.266 7  21535310.489
 107229477.641 7  20405090.661
 114667831.471 6  21820562.490
 125722528.540 4  23924200.310
 19  9  1  0 30 30.0000000  0  8G06G12G13G15G17G19G24G28
 123639248.300 5  23527766.197
 119393069.468 5  22719744.507
 114135281.17816  21719220.651
 114221016.909 6  21735536.437
 113225128.457 6  21546024.767
 107240856.33917  20407255.823
 114595122.157 6  21806726.312
 125789213.92414  23936889.814
 19  9  1  0 31  0.0000000  0  9G06G12G13G15G17G19G24G28G30
 123563493.953 5  23513350.602
 119329674.661 5  22707680.649
 114220746.093 6  21735483.891
 114261534.682 6  21743246.341
 113281846.786 6  21556818.227
 107252857.212 7  20409539.726
 114522615.511 6  21792928.621
 125855847.225 4  23949570.299
 131069570.99913  24941708.284
 19  9  1  0 31 30.0000000  0  9G06G12G13G15G17G19G24G28G30
 123487929.127 5  23498971.403
 119266467.397 5  22695652.529
 114306569.97816  21751816.047
 114302539.047 6  21751049.254
 113338977.472 6  21567689.683
 107265479.60217  20411941.467
 114450314.387 6  21779170.362
 125922428.477 4  23962239.449
 131159847.18813  24958887.739
 19  9  1  0 32  0.0000000  0  9G06G12G13G15G17G19G24G28G30
 123412555.289 5  23484628.231
 119203446.133 5  22683660.177
 114392748.266 6  21768214.968
 114344025.934 6  21758944.139
 113396516.596 6  21578638.751
 107278721.26117  20414461.361
 114378219.015 6  21765451.076
 125988956.044 4  23974899.751
 131250273.990 3  24976093.935
 19  9  1  0 32 30.0000000  0  9G06G12G13G15G17G19G24G28G30
 123337378.811 5  23470322.192
 119140614.179 5  22671703.415
 114479281.293 6  21784681.657
 114385997.104 6  21766931.191
 113454465.367 6  21589665.875
 107292584.689 7  20417099.375
 114306334.932 6  21751771.756
 126055432.681 4  23987550.279
 131340853.781 3  24993330.551
 19  9  1  0 33  0.0000000  0  8G06G12G13G15G17G19G24G28
 123262399.659 5  23456055.026
 119077967.740 5  22659782.397
 114566162.801 6  21801214.597
 114428447.656 6  21775009.184
 113512818.077 6  21600770.254
 107307065.57917  20419855.195
 114234660.398 6  21738132.886
 126121855.255 4  24000189.889
 19  9  1  0 33 30.0000000  0  8G06G12G13G15G17G19G24G28
 123187621.805 5  23441824.809
 119015508.022 5  22647896.520
 114653391.34416  21817813.708
 114471376.085 6  21783178.240
 113571573.227 6  21611950.754
 107322163.558 7  20422728.107
 114163197.977 6  21724533.693
 126188224.591 3  24012819.385
 19  9  1  0 34  0.0000000  0  8G06G12G13G15G17G19G24G28
 123113049.145 5  23427634.185
 118953234.944 5  22636046.864
 114740964.688 6  21834478.377
 114514781.004 6  21791438.012
 113630729.445 6  21623208.033
 107337878.499 7  20425718.404
 114091950.702 6  21710976.095
 126254541.183 3  24025438.518
 19  9  1  0 34 30.0000000  0  8G06G12G13G15G17G19G24G28
 123038683.397 5  23413482.407
 118891146.79015  22624231.531
 114828878.435 6  21851208.089
 114558659.198 6  21799787.899
 113690283.164 6  21634540.668
 107354207.957 7  20428825.871
 114020919.294 6  21697459.223
 126320803.096 3  24038047.687
 19  9  1  0 35  0.0000000  0  8G06G12G13G15G17G19G24G28
 122964529.943 5  23399371.308
 118829246.121 5  22612452.612
 114917132.519 6  21868001.865
 114603010.613 6  21808227.635
 113750234.332 6  21645948.969
 107371153.174 7  20432050.450
 113950108.288 6  21683984.432
 126387012.489 3  24050647.810
 19  9  1  0 35 30.0000000  0  8G06G12G13G15G17G19G24G28
 122890590.299 5  23385301.512
 118767530.760 5  22600708.607
 115005722.257 6  21884860.137
 114647831.694 6  21816756.586
 113810579.075 6  21657432.304
 107388711.322 7  20435391.720
 113879517.090 6  21670551.077
 126453167.569 3  24063235.389
 19  9  1  0 36  0.0000000  0  8G06G12G13G15G17G19G24G28
 122816867.899 5  23371272.608
 118706001.369 5  22588999.566
 115094644.865 6  21901781.351
 114693120.896 6  21825374.513
 113871315.145 6  21668989.716
 107406881.42517  20438849.424
 113809148.474 6  21657160.946
 126519268.643 3  24075814.428
 19  9  1  0 36 30.0000000  0  8G06G12G13G15G17G19G24G28
 122743366.698 5  23357285.936
 118644658.137 5  22577326.599
 115183898.810 6  21918766.028
 114738876.807 6  21834081.846
 113932441.005 6  21680621.912
 107425663.292 7  20442423.505
 113739005.102 6  21643812.686
 126585316.303 3  24088383.264
 19  9  1  0 37  0.0000000  0  8G06G12G13G15G17G19G24G28
 122670088.290 5  23343341.045
 118583499.559 5  22565687.984
 115273479.62916  21935813.019
 114785095.552 6  21842876.635
 113993952.689 6  21692327.026
 107445054.15017  20446113.531
 113669087.471 6  21630507.761
 126651309.042 3  24100940.106
 19  9  1  0 37 30.0000000  0  8G06G12G13G15G17G19G24G28
 122597036.420 5  23329439.990
 118522525.627 5  22554085.770
 115363385.080 6  21952921.146
 114831775.821 6  21851759.893
 114055849.131 6  21704105.329
 107465053.537 7  20449919.218
 113599398.277 6  21617246.184
 126717247.167 2  24113488.378
 19  9  1  0 38  0.0000000  0  8G06G12G13G15G17G19G24G30
 122524216.365 5  23315582.891
 118461738.118 5  22542517.703
 115453614.382 6  21970090.810
 114878917.594 6  21860730.670
 114118129.849 6  21715957.129
 107485662.08117  20453840.680
 113529941.631 6  21604029.112
 132346917.15114  25184781.098
 19  9  1  0 38 30.0000000  0  7G06G12G13G15G17G19G24
 122451628.120 5  23301769.568
 118401134.50915  22530985.245
 115544161.572 6  21987321.610
 114926516.011 6  21869788.465
 114180789.242 6  21727881.013
 107506875.752 7  20457877.588
 113460716.564 6  21590856.239
 19  9  1  0 39  0.0000000  0  7G06G12G13G15G17G19G24
 122379276.724 5  23288001.910
 118340715.822 5  22519488.228
 115635025.679 6  22004612.608
 114974570.206 6  21878932.795
 114243826.717 6  21739876.221
 107528694.96017  20462029.731
 113391726.369 6  21577727.495
 19  9  1  0 39 30.0000000  0  8G06G12G13G15G17G19G24G30
 122307163.207 5  23274279.009
 118280480.262 5  22508025.472
 115726201.774 6  22021962.533
 115023075.967 6  21888163.390
 114307238.152 6  21751943.291
 107551116.571 7  20466296.320
 113322971.280 6  21564644.237
 132624303.23913  25237566.151
 19  9  1  0 40  0.0000000  0  8G06G12G13G15G17G19G24G28
 122235290.981 5  23260602.253
 118220427.618 5  22496597.691
 115817687.377 6  22039371.638
 115072031.601 6  21897479.303
 114371021.570 6  21764080.684
 107574139.30917  20470677.627
 113254453.588 6  21551605.532
                  24176071.262
 19  9  1  0 40 30.0000000  0  7G06G12G13G15G17G19G24
 122163664.763 5  23246971.997
 118160559.122 5  22485204.953
 115909481.164 6  22056839.399
 115121436.61216  21906880.691
 114435176.063 6  21776288.852
 107597763.43817  20475172.910
 113186177.151 6  21538613.202
 19  9  1  0 41  0.0000000  0  8G06G12G13G15G17G19G24G28
 122092288.258 5  23233389.411
 118100875.282 5  22473848.011
 116001581.082 6  22074365.683
 115171289.220 6  21916367.291
 114499699.914 6  21788567.684
 107621988.34317  20479782.752
 113118144.283 6  21525666.709
                  24201031.479
 19  9  1  0 41 30.0000000  0  8G06G12G13G15G17G19G24G28
 122021164.699 5  23219855.448
 118041376.123 5  22462525.809
 116093984.08116  22091949.378
 115221587.311 6  21925938.579
 114564590.82516  21800915.829
 107646812.67517  20484506.942
 113050357.046 6  21512767.231
 127242776.302 3  24213495.560
 19  9  1  0 42  0.0000000  0  8G06G12G13G15G17G19G24G28
 121950295.693 5  23206369.421
 117982059.772 5  22451238.112
 116186686.036 6  22109590.211
 115272327.116 6  21935594.151
 114629844.95516  21813333.344
 107672233.34417  20489344.282
 112982816.394 6  21499914.623
 127308221.478 3  24225949.220
 19  9  1  0 42 30.0000000  0  8G06G12G13G15G17G19G24G28
 121879684.479 5  23192932.666
 117922925.702 5  22439985.070
 116279683.87416  22127287.015
 115323506.442 6  21945333.193
 114695459.922 6  21825819.404
 107698249.293 7  20494294.954
 112915523.946 6  21487109.305
 127373611.657 3  24238392.555
 19  9  1  0 43  0.0000000  0  8G06G12G13G15G17G19G24G28
 121809334.249 5  23179545.496
 117863974.670 5  22428767.390
 116372975.03016  22145040.005
 115375123.066 6  21955155.559
 114761433.331 6  21838373.425
 107724859.13217  20499358.397
 112848482.207 6  21474351.715
 127438946.431 3  24250825.520
 19  9  1  0 43 30.0000000  0  8G06G12G13G15G17G19G24G28
 121739248.469 5  23166208.247
 117805206.345 5  22417584.004
 116466556.85816  22162847.577
 115427175.144 6  21965060.646
 114827763.630 6  21850995.929
 107752061.46717  20504535.019
 112781693.568 6  21461642.169
 127504226.165 3  24263248.073
 19  9  1  0 44  0.0000000  0  7G06G12G13G15G17G19G24
 121669430.661 5  23152922.787
 117746621.340 5  22406435.728
 116560427.166 6  22180710.569
 115479660.918 6  21975048.077
 114894448.50816  21863685.813
 107779855.57017  20509824.297
 112715160.056 6  21448981.214
 19  9  1  0 44 30.0000000  0  7G06G12G13G15G17G19G24
 121599883.237 5  23139688.197
 117688218.484 5  22395321.520
 116654581.963 6  22198627.334
 115532577.480 6  21985118.002
 114961485.208 6  21876442.190
 107808238.97417  20515225.051
 112648883.362 6  21436369.388
 19  9  1  0 45  0.0000000  0  8G06G12G13G15G17G19G24G28
 121530608.377 5  23126505.906
 117629995.984 5  22384242.365
 116749017.721 5  22216598.191
 115585921.292 6  21995268.778
 115028870.216 6  21889265.426
 107837209.29917  20520737.990
 112582864.645 6  21423806.199
 127699736.83313  24300452.171
 19  9  1  0 45 30.0000000  0  8G06G12G13G15G17G19G24G28
 121461610.383 5  23113375.741
 117571955.791 5  22373197.962
 116843732.845 5  22234622.198
 115639690.913 6  22005501.118
 115096602.294 6  21902154.172
 107866766.34217  20526362.347
 112517107.084 6  21411293.191
 127764795.33813  24312832.467
 19  9  1  0 46  0.0000000  0  8G06G12G13G15G17G19G24G28
 121392891.580 5  23100299.353
 117514096.627 5  22362187.617
 116938723.36815  22252698.142
 115693884.007 6  22015813.803
 115164678.340 6  21915108.576
 107896907.46317  20532098.136
 112451612.076 6  21398829.912
 127829798.149 3  24325202.135
 19  9  1  0 46 30.0000000  0  9G02G06G12G13G15G17G19G24G28
 126912612.14914  24150666.754
 121324456.188 5  23087276.537
 117456419.237 6  22351212.060
 117033987.49415  22270825.945
 115748498.934 6  22026206.474
 115233097.134 6  21928128.263
 107927632.37517  20537945.079
 112386382.850 6  21386417.060
 127894746.49413  24337561.200
 19  9  1  0 47  0.0000000  0  8G02G06G12G13G15G17G19G24
 126825431.414 4  24134076.775
 121256307.379 5  23074308.178
 117398923.661 5  22340270.923
 117129522.504 5  22289005.854
 115803533.46916  22036679.268
 115301856.428 6  21941212.825
 107958939.59117  20543902.398
 112321421.294 6  21374055.333
 19  9  1  0 47 30.0000000  0  8G02G06G12G13G15G17G19G24
 126738236.38114  24117484.187
 121188446.923 5  23061394.431
 117341607.39415  22329363.919
 117225324.254 5  22307236.414
 115858983.78916  22047231.140
 115370952.198 6  21954361.317
 107990826.34417  20549970.393
 112256728.006 7  21361744.645
 19  9  1  0 48  0.0000000  0  8G02G06G12G13G15G17G19G24
 126651029.84414  24100889.163
 121120877.982 5  23048536.783
 117284471.670 5  22318491.789
 117321389.97115  22325516.800
 115914847.590 6  22057861.559
 115440382.462 6  21967573.634
 108023290.71017  20556148.070
 112192305.946 6  21349485.387
 19  9  1  0 48 30.0000000  0  8G02G06G12G13G15G17G19G24
 126563814.768 4  24084292.429
 121053603.591 5  23035735.042
 117227516.086 6  22307653.379
 117417716.887 5  22343847.370
 115971122.50616  22068570.383
 115510144.695 6  21980848.769
 108056330.833 7  20562435.599
 112128156.497 6  21337278.176
 19  9  1  0 49  0.0000000  0  8G02G06G12G13G15G17G19G24
 126476594.915 4  24067694.955
 120986628.09015  23022989.949
 117170741.178 6  22296849.460
 117514303.087 5  22362226.903
 116027807.44516  22079357.493
 115580238.167 6  21994187.149
 108089946.86717  20568832.347
 112064283.162 6  21325123.487
 19  9  1  0 49 30.0000000  0  8G02G06G12G13G15G17G19G24
 126389372.097 4  24051097.192
 120919953.696 5  23010302.335
 117114145.798 6  22286079.842
 117611144.765 5  22380655.685
 116084899.403 6  22090221.742
 115650659.099 6  22007587.678
 108124135.94417  20575338.384
 112000687.386 7  21313021.629
 19  9  1  0 50  0.0000000  0  8G02G06G12G13G15G17G19G24
 126302148.149 4  24034499.740
 120853582.724 5  22997672.520
 117057728.86316  22275343.851
 117708238.355 5  22399131.863
 116142394.641 6  22101162.491
 115721404.334 6  22021050.292
 108158895.451 7  20581952.628
 111937370.556 6  21300972.824
 19  9  1  0 50 30.0000000  0  9G02G06G12G13G15G17G19G24G28
 126214927.41014  24017901.598
 120787519.350 5  22985100.481
 117001492.28516  22264642.342
 117805582.15115  22417655.308
 116200292.248 6  22112180.024
 115792472.786 6  22034573.935
 108194224.67017  20588675.618
 111874335.326 7  21288977.630
                  24436056.924
 19  9  1  0 51  0.0000000  0  8G02G06G12G13G15G17G19G24
 126127712.309 4  24001303.955
 120721766.653 5  22972588.135
 116945435.459 5  22253975.196
 117903173.297 5  22436226.234
 116258589.445 6  22123273.460
 115863862.217 6  22048158.893
 108230122.24617  20595506.669
 111811584.519 7  21277036.598
 19  9  1  0 51 30.0000000  0  9G02G06G12G13G15G17G19G24G28
 126040504.54414  23984710.239
 120656326.579 5  22960135.609
 116889556.782 5  22243341.404
 118001007.47115  22454843.910
 116317282.965 6  22134442.498
 115935568.807 6  22061804.379
 108266585.138 7  20602445.224
 111749118.421 6  21265149.562
 128541199.39813  24460577.096
 19  9  1  0 52  0.0000000  0  9G02G06G12G13G15G17G19G24G28
 125953307.55614  23968116.636
 120591202.854 5  22947742.916
 116833856.716 6  22232742.258
 118099082.738 5  22473507.031
 116376370.619 6  22145686.664
 116007590.894 6  22075509.654
 108303612.12517  20609491.598
 111686940.370 7  21253317.479
 128605543.14513  24472821.405
 19  9  1  0 52 30.0000000  0  9G02G06G12G13G15G17G19G24G28
 125866124.61514  23951525.752
 120526398.994 5  22935410.599
 116778335.05616  22222176.992
 118197396.49415  22492215.501
 116435850.764 6  22157005.220
 116079926.767 6  22089274.641
 108341202.15617  20616644.641
 111625051.982 7  21241540.625
 128669832.98113  24485055.749
 19  9  1  0 53  0.0000000  0  9G02G06G12G13G15G17G19G24G28
 125778956.77014  23934939.052
 120461916.250 5  22923140.235
 116722990.489 5  22211645.314
 118295944.168 5  22510968.182
 116495719.185 6  22168397.766
 116152572.286 6  22103098.755
 108379351.22017  20623904.400
 111563454.715 7  21229819.117
 128734067.520 3  24497279.192
 19  9  1  0 53 30.0000000  0  9G02G06G12G13G15G17G19G24G28
 125691808.059 4  23918354.234
 120397758.813 5  22910931.401
 116667824.283 6  22201147.323
 118394724.097 5  22529765.062
 116555974.502 6  22179864.060
 116225525.930 6  22116981.359
 108418058.92317  20631269.915
 111502151.456 7  21218153.494
 128798247.756 3  24509492.041
 19  9  1  0 54  0.0000000  0  9G02G06G12G13G15G17G19G24G28
 125604681.77014  23901774.363
 120333930.343 5  22898785.532
 116612836.10416  22190683.378
 118493733.74015  22548607.028
 116616614.869 6  22191403.744
 116298786.064 6  22130922.442
 108457323.73717  20638741.888
 111441144.816 7  21206544.177
 128862374.65413  24521694.460
 19  9  1  0 54 30.0000000  0  9G02G06G12G13G15G17G19G24G28
 125517579.93014  23885200.262
 120270433.009 5  22886702.576
 116558025.335 6  22180252.929
 118592969.541 5  22567490.487
 116677636.767 6  22203015.727
 116372349.503 6  22144920.896
 108497143.06817  20646319.023
 111380436.294 7  21194991.469
 128926447.530 3  24533887.189
 19  9  1  0 55  0.0000000  0  9G02G06G12G13G15G17G19G24G28
 125430504.46114  23868630.537
 120207268.928 5  22874683.042
 116503390.839 6  22169856.950
 118692427.575 5  22586416.523
 116739036.723 6  22214699.852
 116446213.139 6  22158976.669
 108537514.10217  20654001.366
 111320026.965 7  21183495.951
 128990465.753 3  24546070.360
 19  9  1  0 55 30.0000000  0  9G02G06G12G13G15G17G19G24G28
 125343458.12514  23852065.921
 120144441.34715  22862726.910
 116448932.621 6  22159493.711
 118792105.147 5  22605384.850
 116800812.38916  22226455.366
 116520374.506 6  22173089.231
 108578435.10917  20661788.595
 111259919.447 7  21172058.186
 129054429.66213  24558242.097
 19  9  1  0 56  0.0000000  0  9G02G06G12G13G15G17G19G24G28
 125256444.82514  23835508.848
 120081954.058 5  22850836.706
 116394651.435 6  22149164.578
 118892000.328 5  22624394.072
 116862962.44816  22238282.166
 116594832.170 6  22187257.650
 108619905.17417  20669680.257
 111200116.498 7  21160678.108
 129118340.24213  24570402.987
 19  9  1  0 56 30.0000000  0  9G02G06G12G13G15G17G19G24G28
 125169466.435 4  23818956.985
 120019809.161 5  22839010.035
 116340546.039 6  22138868.046
 118992109.080 5  22643444.101
 116925483.00716  22250179.290
 116669582.611 6  22201482.545
 108661921.04817  20677675.489
 111140618.956 7  21149356.114
 129182196.889 3  24582554.224
 19  9  1  0 57  0.0000000  0  9G02G06G12G13G15G17G19G24G28
 125082527.188 4  23802412.806
 119958011.128 5  22827250.685
 116286617.735 6  22128605.931
 119092430.129 5  22662534.411
 116988373.116 6  22262147.071
 116744625.043 6  22215762.677
 108704482.78717  20685774.548
 111081431.403 7  21138093.227
 129246001.409 2  24594696.334
 19  9  1  0 57 30.0000000  0  8G02G06G12G13G15G17G19G24
 124995628.72114  23785876.936
 119896561.692 6  22815556.882
 116232864.596 6  22118377.279
 119192959.245 5  22681664.566
 117051629.131 6  22274184.015
 116819955.90816  22230097.623
 108747586.76317  20693976.988
 111022553.613 7  21126888.976
 19  9  1  0 58  0.0000000  0  8G02G06G12G13G15G17G19G24
 124908775.16814  23769349.353
 119835464.715 5  22803931.224
 116179287.946 6  22108181.741
 119293694.545 5  22700833.778
 117115249.052 6  22286290.312
 116895573.52816  22244486.942
 108791232.20217  20702282.402
 110963989.153 7  21115744.440
 19  9  1  0 58 30.0000000  0  8G02G06G12G13G15G17G19G24
 124821966.451 4  23752829.990
 119774720.68116  22792371.544
 116125885.321 6  22098019.707
 119394630.383 5  22720041.476
 117179228.162 6  22298464.993
 116971473.246 6  22258930.311
 108835413.971 7  20710689.887
 110905737.475 7  21104659.614
 19  9  1  0 59  0.0000000  0  8G02G06G12G13G15G17G19G24
 124735207.18214  23736320.239
 119714334.419 5  22780879.994
 116072657.328 6  22087890.406
 119495765.88515  22739287.162
 117243565.553 6  22310708.421
 117047654.46416  22273427.301
 108880132.56917  20719199.594
 110847802.160 7  21093634.861
 19  9  1  0 59 30.0000000  0  8G02G06G12G13G15G17G19G24
 124648500.740 4  23719819.885
 119654309.18515  22769457.680
 116019605.38616  22077795.301
 119597098.441 5  22758569.373
 117308259.061 6  22323018.893
 117124115.409 6  22287977.274
 108925386.20917  20727811.235
 110790186.823 7  21082670.964
 19  9  1  1  0  0.0000000  0  8G02G06G12G13G15G17G19G24
 124561848.88314  23703330.682
 119594646.85015  22758104.477
 115966727.804 6  22067733.373
 119698624.25115  22777888.998
 117373305.27916  22335396.787
 117200852.47816  22302579.875
 108971171.444 7  20736523.947
 110732891.825 7  21071767.976
 19  9  1  1  0 30.0000000  0  8G02G06G12G13G15G17G19G24
 124475255.10214  23686852.838
 119535350.741 6  22746820.911
 115914024.562 6  22057703.998
 119800340.99915  22797245.203
 117438701.450 6  22347841.312
 117277863.63316  22317234.505
 109017486.693 7  20745337.358
 110675919.800 7  21060926.829
 19  9  1  1  1  0.0000000  0  8G02G06G12G13G15G17G19G24
 124388721.054 4  23670386.018
 119476422.814 6  22735607.255
 115861494.389 6  22047707.666
 119902244.165 5  22816637.548
 117504444.196 6  22360351.761
 117355145.51816  22331940.742
 109064328.88417  20754251.096
 110619271.487 7  21050146.972
 19  9  1  1  1 30.0000000  0  8G02G06G12G13G15G17G19G24
 124302250.772 4  23653931.003
 119417867.106 6  22724464.633
 115809138.459 6  22037744.802
 120004332.400 5  22836063.621
 117570532.021 6  22372927.977
 117432696.76716  22346698.062
 109111697.24017  20763264.960
 110562950.640 7  21039429.336
 19  9  1  1  2  0.0000000  0  8G02G06G12G13G15G17G19G24
 124215845.623 4  23637489.081
 119359685.006 5  22713392.873
 115756954.964 6  22027814.748
 120106601.638 5  22855525.533
 117636960.380 6  22385568.916
 117510513.430 6  22361506.375
 109159588.02416  20772378.344
 110506957.916 7  21028774.407
 19  9  1  1  2 30.0000000  0  8G02G06G12G13G15G17G19G24
 124129508.894 4  23621058.778
 119301879.495 6  22702392.982
 115704944.153 6  22017917.197
 120209047.904 5  22875020.050
 117703727.477 6  22398274.425
 117588593.648 6  22376364.457
 109207999.09017  20781590.610
 110451295.066 7  21018182.076
 19  9  1  1  3  0.0000000  0  8G02G06G12G13G15G17G19G24
 124043244.716 4  23604644.190
 119244455.418 5  22691465.239
 115653107.754 6  22008052.681
 120311671.639 5  22894548.661
 117770832.300 6  22411043.701
 117666936.452 6  22391272.461
 109256930.41617  20790902.020
 110395966.536 7  21007653.408
 19  9  1  1  3 30.0000000  0  8G02G06G12G13G15G17G19G24
 123957053.446 4  23588242.352
 119187412.523 5  22680610.140
 115601441.955 6  21998221.327
 120414466.207 5  22914109.578
 117838269.182 6  22423876.302
 117745536.827 6  22406229.724
 109306376.39817  20800311.163
 110340971.534 7  20997188.063
 19  9  1  1  4  0.0000000  0  8G02G06G12G13G15G17G19G24
 123870940.847 4  23571855.505
 119130756.657 5  22669829.156
 115549950.269 6  21988422.735
 120517431.291 5  22933703.400
 117906038.488 6  22436772.586
 117824395.289 6  22421236.049
 109356338.05016  20809818.552
 110286314.526 7  20986787.276
 19  9  1  1  4 30.0000000  0  8G02G06G12G13G15G17G19G24
 123784907.55414  23555483.209
 119074488.57216  22659121.905
 115498629.648 6  21978656.681
 120620562.843 5  22953328.626
 117974134.99716  22449731.022
 117903507.272 6  22436290.384
 109406811.17717  20819423.309
 110231996.342 7  20976450.717
 19  9  1  1  5  0.0000000  0  8G02G06G12G13G15G17G19G24
 123698958.027 4  23539128.232
 119018612.594 5  22648488.329
 115447482.131 6  21968923.764
 120723858.678 5  22972985.294
 118042557.95516  22462751.243
 117982871.998 6  22451393.287
 109457794.99817  20829125.140
 110178019.799 7  20966179.468
 19  9  1  1  5 30.0000000  0  8G02G06G12G13G15G17G19G24
 123613093.24114  23522788.562
 118963129.60516  22637930.709
 115396505.542 6  21959223.324
 120827314.35315  22992672.114
 118111302.15216  22475833.223
 118062485.206 6  22466542.816
 109509285.43017  20838923.323
 110124385.500 7  20955973.259
 19  9  1  1  6  0.0000000  0  8G02G06G12G13G15G17G19G24
 123527316.522 4  23506466.519
 118908042.758 5  22627448.129
 115345699.615 6  21949555.214
 120930927.468 5  23012388.889
 118180366.026 6  22488975.776
 118142344.721 6  22481739.893
 109561280.539 6  20848817.817
 110071095.816 7  20945832.547
 19  9  1  1  6 30.0000000  0  8G02G06G12G13G15G17G19G24
 123441632.32814  23490160.921
 118853356.378 6  22617041.790
 115295066.125 6  21939920.015
 121034696.13015  23032135.364
 118249748.024 6  22502178.628
 118222449.860 6  22496983.433
 109613779.58917  20858807.884
 110018154.710 7  20935758.042
 19  9  1  1  7  0.0000000  0  8G02G06G12G13G15G17G19G24
 123356041.756 4  23473873.621
 118799071.539 5  22606711.763
 115244602.567 6  21930316.807
 121138615.960 5  23051910.146
 118319443.757 6  22515440.633
 118302796.61316  22512272.837
 109666778.14217  20868893.498
 109965562.126 7  20925750.094
 19  9  1  1  7 30.0000000  0  8G02G06G12G13G15G17G19G24
 123270548.44114  23457604.733
 118745191.593 6  22596458.127
 115194309.956 6  21920746.601
 121242684.02015  23071714.573
 118389451.297 6  22528763.141
 118383383.304 6  22527607.872
 109720275.233 7  20879073.368
 109913321.236 7  20915808.869
 19  9  1  1  8  0.0000000  0  8G02G06G12G13G15G17G19G24
 123185154.848 5  23441355.286
 118691718.903 5  22586282.640
 115144187.721 6  21911209.007
 121346898.357 5  23091545.116
 118459767.242 6  22542143.565
 118464206.675 6  22542988.255
 109774267.97716  20889347.713
 109861433.106 7  20905934.952
 19  9  1  1  8 30.0000000  0  8G02G06G12G13G15G17G19G24
 123099864.546 5  23425124.915
 118638657.024 6  22576185.617
 115094236.448 6  21901703.556
 121451256.15815  23111404.698
 118530389.968 6  22555582.666
 118545265.54416  22558413.013
 109828754.90217  20899716.265
 109809900.720 7  20896128.795
 19  9  1  1  9  0.0000000  0  8G02G06G12G13G15G17G19G24
 123014678.155 5  23408914.184
 118586006.560 5  22566166.714
 115044453.751 6  21892229.853
 121555752.806 5  23131289.302
 118601314.190 6  22569079.054
 118626555.394 6  22573882.035
 109883731.391 6  20910178.218
 109758724.307 7  20886390.047
 19  9  1  1  9 30.0000000  0  8G02G06G12G13G15G17G19G24
 122929600.946 5  23392724.531
 118533772.373 6  22556226.655
 114994841.334 6  21882789.067
 121660387.060 5  23151199.983
 118672539.611 6  22582633.023
 118708076.040 6  22589394.665
 109939197.238 7  20920733.015
 109707908.240 7  20876720.064
 19  9  1  1 10  0.0000000  0  8G02G06G12G13G15G17G19G24
 122844634.639 5  23376556.338
 118481955.749 6  22546366.309
 114945397.840 6  21873380.388
 121765154.81514  23171136.917
 118744062.163 6  22596243.168
 118789823.591 6  22604950.732
 109995148.77916  20931380.400
 109657453.173 7  20867119.092
 19  9  1  1 10 30.0000000  0  8G02G06G12G13G15G17G19G24
 122759782.462 5  23360409.435
 118430559.843 6  22536586.325
 114896123.971 6  21864003.668
 121870053.805 5  23191098.671
 118815879.459 6  22609909.430
 118871796.253 6  22620549.850
 110051584.149 7  20942119.380
 109607361.164 7  20857586.595
 19  9  1  1 11  0.0000000  0  8G02G06G12G13G15G17G19G24
 122675046.912 5  23344284.908
 118379586.975 6  22526886.421
 114847018.484 6  21854659.210
 121975080.604 4  23211084.930
 118887987.954 6  22623631.660
 118953991.42816  22636191.460
 110108500.63716  20952950.037
 109557634.468 7  20848123.822
 19  9  1  1 11 30.0000000  0  8G02G06G12G13G15G17G19G24
 122590431.289 5  23328183.111
 118329040.254 6  22517267.217
 114798082.29016  21845346.722
 122080232.249 5  23231094.307
 118960386.063 6  22637408.074
 119036407.04216  22651874.157
 110165896.21216  20963872.089
 109508275.378 7  20838731.307
 19  9  1  1 12  0.0000000  0  8G02G06G12G13G15G17G19G24
 122505938.069 5  23312104.102
 118278921.866 6  22507730.444
 114749314.687 6  21836067.025
 122185506.385 4  23251127.416
 119033069.999 6  22651239.560
 119119040.64116  22667599.242
 110223768.05216  20974884.976
 109459285.638 7  20829408.875
 19  9  1  1 12 30.0000000  0  8G02G06G12G13G15G17G19G24
 122421569.897 5  23296049.734
 118229233.945 6  22498275.143
 114700714.663 6  21826818.320
 122290899.247 4  23271182.324
 119106036.927 6  22665124.752
 119201888.88016  22683364.251
 110282113.29216  20985987.589
 109410666.309 7  20820156.929
 19  9  1  1 13  0.0000000  0  8G02G06G12G13G15G17G19G24
 122337330.290 5  23280019.289
 118179980.013 5  22488902.358
 114652282.367 6  21817602.054
 122396409.196 4  23291260.831
 119179284.852 6  22679063.564
 119284950.59616  22699170.513
 110340930.666 6  20997180.486
 109362420.740 7  20810976.015
 19  9  1  1 13 30.0000000  0  8G02G06G12G13G15G17G19G24
 122253220.80115  23264013.820
 118131161.146 6  22479612.565
 114604017.472 6  21808417.712
 122502031.033 4  23311360.323
 119252809.050 6  22693054.957
 119368222.10816  22715016.432
 110400216.040 7  21008462.176
 109314549.293 7  20801866.474
 19  9  1  1 14  0.0000000  0  8G02G06G12G13G15G17G19G24
 122169246.060 5  23248034.045
 118082781.713 6  22470405.788
 114555920.879 6  21799265.345
 122607764.084 4  23331480.404
 119326609.066 6  22707098.230
 119451702.741 6  22730902.626
 110459968.64816  21019832.857
 109267056.224 7  20792828.605
 19  9  1  1 14 30.0000000  0  8G02G06G12G13G15G17G19G24
 122085406.811 5  23232080.315
 118034842.019 6  22461283.518
 114507990.349 6  21790144.202
 122713603.446 4  23351620.569
 119400679.833 6  22721193.664
 119535387.872 6  22746827.292
 110520183.80217  21031291.259
 109219940.416 7  20783862.791
 19  9  1  1 15  0.0000000  0  8G02G06G12G13G15G17G19G24
 122001707.876 5  23216152.736
 117987346.556 6  22452245.146
 114460227.612 6  21781055.210
 122819547.972 4  23371780.990
 119475020.462 6  22735340.132
 119619277.160 6  22762790.874
 110580861.059 6  21042837.347
 109173206.835 7  20774969.795
 19  9  1  1 15 30.0000000  0  8G02G06G12G13G15G17G19G24
 121918150.412 5  23200252.032
 117940296.255 6  22443292.225
 114412631.109 6  21771997.804
 122925593.612 4  23391960.936
 119549626.339 6  22749537.196
 119703366.78716  22778792.522
 110641996.414 7  21054471.145
 109126855.592 7  20766149.113
 19  9  1  1 16  0.0000000  0  8G02G06G12G13G15G17G19G24
 121834738.732 5  23184379.733
 117893694.846 6  22434424.060
 114365201.956 6  21762972.312
 123031738.215 4  23412159.326
 119624495.640 6  22763784.491
 119787655.555 6  22794832.200
 110703588.738 6  21066192.107
 109080889.672 7  20757402.458
 19  9  1  1 16 30.0000000  0  9G02G06G12G13G15G17G19G24G28
 121751474.79215  23168534.594
 117847544.005 6  22425641.897
 114317938.648 6  21753978.666
 123137978.062 4  23432376.551
 119699625.105 6  22778081.033
 119872140.681 6  22810909.111
 110765634.49716  21077998.483
 109035310.044 7  20748728.909
 131695046.83713  25060734.286
 19  9  1  1 17  0.0000000  0  8G02G06G12G13G15G17G19G24
 121668361.54015  23152718.513
 117801845.883 6  22416945.879
 114270840.869 6  21745016.018
 123244310.116 4  23452610.291
 119775011.715 6  22792426.905
 119956819.009 6  22827022.920
 110828130.93716  21089891.556
 108990119.192 7  20740129.291
 19  9  1  1 17 30.0000000  0  8G02G06G12G13G15G17G19G24
 121585402.810 5  23136931.822
 117756604.203 6  22408336.387
 114223910.233 6  21736085.657
 123350732.946 4  23472862.754
 119850653.681 6  22806821.308
 120041689.550 6  22843173.473
 110891076.659 6  21101869.271
 108945319.684 7  20731604.227
 19  9  1  1 18  0.0000000  0  8G02G06G12G13G15G17G19G24
 121502600.39315  23121175.535
 117711820.396 6  22399814.445
 114177144.633 6  21727186.306
 123457242.622 4  23493131.372
 119926547.207 6  22821262.733
 120126749.311 6  22859359.759
 110954468.291 6  21113932.576
 108900912.640 7  20723153.821
 19  9  1  1 18 30.0000000  0  8G02G06G12G13G15G17G19G24
 121419956.05015  23105448.951
 117667495.495 6  22391379.652
 114130543.722 6  21718318.340
 123563834.824 4  23513414.596
 120002687.944 6  22835752.210
 120211994.50516  22875581.029
 111018301.973 6  21126079.936
 108856898.580 7  20714778.099
 19  9  1  1 19  0.0000000  0  8G02G06G12G13G15G17G19G24
 121337475.072 5  23089753.139
 117623634.396 6  22383033.049
 114084108.481 6  21709482.273
 123670509.167 4  23533714.454
 120079075.636 6  22850288.137
 120297425.219 6  22891838.016
 111082577.581 6  21138311.241
 108813282.368 7  20706478.402
 19  9  1  1 19 30.0000000  0  8G02G06G12G13G15G17G19G24
 121255158.947 5  23074088.916
 117580238.119 6  22374775.442
 114037838.598 6  21700677.537
 123777261.429 4  23554028.302
 120155705.715 6  22864869.919
 120383037.814 6  22908129.505
 111147291.14916  21150625.546
 108770064.204 7  20698254.138
 19  9  1  1 20  0.0000000  0  8G02G06G12G13G15G17G19G24
 121173008.99815  23058456.086
 117537307.498 6  22366605.416
 113991731.987 6  21691903.271
 123884087.259 4  23574356.368
 120232574.487 5  22879498.055
 120468828.529 5  22924455.044
 111212438.761 6  21163022.738
 108727244.472 7  20690105.976
 19  9  1  1 20 30.0000000  0  8G02G06G12G13G15G17G19G24
 121091031.47715  23042856.841
 117494848.323 6  22358525.921
 113945791.645 6  21683161.152
 123990987.138 4  23594698.642
 120309682.269 5  22894171.008
 120554798.362 5  22940814.496
 111278021.094 6  21175502.645
 108684828.479 7  20682034.408
 19  9  1  1 21  0.0000000  0  8G02G06G12G13G15G17G19G24
 121009226.458 5  23027289.397
 117452859.858 6  22350535.722
 113900014.716 6  21674450.160
 124097955.674 4  23615053.944
 120387023.236 5  22908888.468
 120640942.220 5  22957207.402
 111344032.544 6  21188063.960
 108642815.586 7  20674039.549
 19  9  1  1 21 30.0000000  0  8G02G06G12G13G15G17G19G24
 120927597.433 5  23011756.154
 117411344.925 6  22342635.776
 113854401.392 6  21665770.377
 124204989.813 4  23635421.826
 120464594.387 5  22923649.743
 120727258.002 5  22973632.917
 111410471.33516  21200706.984
 108601207.556 7  20666121.625
 19  9  1  1 22  0.0000000  0  9G02G06G12G13G15G17G19G24G28
 120846148.636 5  22996256.770
 117370307.349 6  22334826.405
 113808953.369 6  21657121.634
 124312088.720 4  23655802.867
 120542395.072 5  22938454.861
 120813745.555 5  22990090.418
 111477336.12516  21213430.788
 108560008.604 7  20658282.051
                  25189795.924
 19  9  1  1 22 30.0000000  0  8G02G06G12G13G15G17G19G24
 120764881.16415  22980792.262
 117329747.989 6  22327108.651
 113763668.642 6  21648504.430
 124419247.638 4  23676194.381
 120620421.137 5  22953302.642
 120900400.878 5  23006580.865
 111544622.824 6  21226235.297
 108519218.499 7  20650519.944
 19  9  1  1 23  0.0000000  0  8G02G06G12G13G15G17G19G24
 120683798.094 5  22965362.896
 117289669.013 6  22319481.140
 113718547.122 6  21639917.871
 124526464.316 4  23696596.852
 120698669.232 5  22968193.181
 120987221.334 5  23023101.599
 111612328.80816  21239119.396
 108478839.077 7  20642836.056
 19  9  1  1 23 30.0000000  0  8G02G06G12G13G15G17G19G24
 120602904.14215  22949969.129
 117250074.426 6  22311947.210
 113673590.117 6  21631363.237
 124633737.589 4  23717009.746
 120777138.281 5  22983125.114
 121074206.398 5  23039654.563
 111680453.155 6  21252083.264
 108438874.978 7  20635230.967
 19  9  1  1 24  0.0000000  0  8G02G06G12G13G15G17G19G24
 120522199.665 5  22934612.142
 117210963.879 6  22304504.624
 113628795.413 6  21622838.908
 124741061.776 4  23737432.692
 120855822.941 5  22998097.575
 121161351.700 5  23056237.477
 111748990.793 6  21265125.136
 108399324.526 7  20627704.715
 19  9  1  1 24 30.0000000  0  8G02G06G12G13G15G17G19G24
 120441688.591 5  22919290.849
 117172340.664 6  22297154.664
 113584163.921 6  21614345.877
 124848435.253 4  23757866.317
 120934721.437 5  23013112.235
 121248656.15815  23072851.206
 111817940.605 6  21278246.133
 108360191.181 7  20620257.904
 19  9  1  1 25  0.0000000  0  8G02G06G12G13G15G17G19G24
 120361373.579 5  22904007.158
 117134206.877 6  22289898.188
 113539695.575 6  21605883.649
 124955855.496 3  23778307.404
 121013830.504 5  23028165.928
 121336116.792 5  23089494.470
 111887299.420 6  21291444.628
 108321476.573 7  20612890.974
 19  9  1  1 25 30.0000000  0  8G02G06G12G13G15G17G19G24
 120281255.577 5  22888761.087
 117096562.727 6  22282734.840
 113495387.908 6  21597452.362
 125063317.181 4  23798757.232
 121093145.950 5  23043258.750
 121423729.978 5  23106166.724
 111957062.486 6  21304720.067
 108283180.042 7  20605603.385
 19  9  1  1 26  0.0000000  0  8G02G06G12G13G15G17G19G24
 120201340.760 5  22873554.328
 117059413.568 6  22275665.422
 113451244.149 6  21589051.945
 125170820.708 4  23819214.272
 121172667.827 5  23058391.026
 121511496.677 5  23122867.897
 112027230.86716  21318072.649
 108245307.602 7  20598396.201
 19  9  1  1 26 30.0000000  0  8G02G06G12G13G15G17G19G24
 120121630.183 5  22858385.268
 117022759.748 6  22268690.130
 113407262.563 6  21580682.530
 125278361.716 4  23839678.143
 121252391.321 5  23073562.626
 121599412.663 5  23139598.147
 112097799.841 6  21331501.178
 108207858.837 7  20591269.854
 19  9  1  1 27  0.0000000  0  8G02G06G12G13G15G17G19G24
 120042125.62315  22843256.566
 116986602.260 6  22261810.001
 113363441.737 6  21572343.678
 125385936.687 4  23860148.497
 121332312.403 5  23088771.218
 121687474.609 5  23156355.824
 112168765.749 6  21345005.829
 108170834.276 7  20584224.379
 19  9  1  1 27 30.0000000  0  8G02G06G12G13G15G17G19G24
 119962832.013 5  22828167.060
 116950945.317 6  22255024.720
 113319783.771 6  21564035.712
 125493543.980 3  23880626.470
 121412430.486 5  23104016.639
 121775682.653 5  23173141.172
 112240128.066 6  21358585.481
 108134237.986 7  20577260.510
 19  9  1  1 28  0.0000000  0  8G02G06G12G13G15G17G19G24
 119883751.456 5  22813119.017
 116915790.221 6  22248335.069
 113276287.573 6  21555758.562
 125601180.906 3  23901107.808
 121492741.861 5  23119299.502
 121864033.554 5  23189954.324
 112311883.33716  21372240.109
 108098071.054 7  20570378.011
 19  9  1  1 28 30.0000000  0  8G02G06G12G13G15G17G19G24
